[
  {
    "country_name": "Afghanistan",
    "latitude": 34.53581,
    "longitude": 69.19051,
    "pm25_concentration": 120.0,
    "year": 2019
  },
  {
    "country_name": "Albania",
    "latitude": 41.111,
    "longitude": 20.0817,
    "pm25_concentration": 14.666666666666666,
    "year": 2014
  },
  {
    "country_name": "Albania",
    "latitude": 41.111,
    "longitude": 20.0817,
    "pm25_concentration": 16.25,
    "year": 2015
  },
  {
    "country_name": "Albania",
    "latitude": 41.111,
    "longitude": 20.0817,
    "pm25_concentration": 17.666666666666668,
    "year": 2016
  },
  {
    "country_name": "Albania",
    "latitude": 41.111,
    "longitude": 20.0817,
    "pm25_concentration": 14.0,
    "year": 2017
  },
  {
    "country_name": "Albania",
    "latitude": 41.111,
    "longitude": 20.0817,
    "pm25_concentration": 10.0,
    "year": 2019
  },
  {
    "country_name": "Algeria",
    "latitude": 36.7558,
    "longitude": 3.03911,
    "pm25_concentration": 22.0,
    "year": 2019
  },
  {
    "country_name": "Argentina",
    "latitude": -34.56,
    "longitude": -58.506,
    "pm25_concentration": 10.0,
    "year": 2014
  },
  {
    "country_name": "Argentina",
    "latitude": -34.56,
    "longitude": -58.506,
    "pm25_concentration": 14.0,
    "year": 2020
  },
  {
    "country_name": "Argentina",
    "latitude": -34.56,
    "longitude": -58.506,
    "pm25_concentration": 14.666666666666666,
    "year": 2021
  },
  {
    "country_name": "Australia",
    "latitude": -33.6482,
    "longitude": 115.352,
    "pm25_concentration": 16.8,
    "year": 2010
  },
  {
    "country_name": "Australia",
    "latitude": -33.6482,
    "longitude": 115.352,
    "pm25_concentration": 13.6,
    "year": 2011
  },
  {
    "country_name": "Australia",
    "latitude": -33.6482,
    "longitude": 115.352,
    "pm25_concentration": 15.571428571428571,
    "year": 2012
  },
  {
    "country_name": "Australia",
    "latitude": -33.6482,
    "longitude": 115.352,
    "pm25_concentration": 10.411764705882353,
    "year": 2013
  },
  {
    "country_name": "Australia",
    "latitude": -33.6482,
    "longitude": 115.352,
    "pm25_concentration": 7.3,
    "year": 2014
  },
  {
    "country_name": "Australia",
    "latitude": -33.6482,
    "longitude": 115.352,
    "pm25_concentration": 6.9375,
    "year": 2015
  },
  {
    "country_name": "Australia",
    "latitude": -33.6482,
    "longitude": 115.352,
    "pm25_concentration": 6.666666666666667,
    "year": 2016
  },
  {
    "country_name": "Australia",
    "latitude": -33.6482,
    "longitude": 115.352,
    "pm25_concentration": 7.333333333333333,
    "year": 2017
  },
  {
    "country_name": "Australia",
    "latitude": -33.6482,
    "longitude": 115.352,
    "pm25_concentration": 8.333333333333334,
    "year": 2018
  },
  {
    "country_name": "Australia",
    "latitude": -33.6482,
    "longitude": 115.352,
    "pm25_concentration": 7.377049180327869,
    "year": 2019
  },
  {
    "country_name": "Austria",
    "latitude": 48.21333333,
    "longitude": 15.19722222,
    "pm25_concentration": 18.272727272727273,
    "year": 2010
  },
  {
    "country_name": "Austria",
    "latitude": 48.21333333,
    "longitude": 15.19722222,
    "pm25_concentration": 15.787878787878787,
    "year": 2013
  },
  {
    "country_name": "Austria",
    "latitude": 48.21333333,
    "longitude": 15.19722222,
    "pm25_concentration": 12.96551724137931,
    "year": 2014
  },
  {
    "country_name": "Austria",
    "latitude": 48.21333333,
    "longitude": 15.19722222,
    "pm25_concentration": 13.71875,
    "year": 2015
  },
  {
    "country_name": "Austria",
    "latitude": 48.21333333,
    "longitude": 15.19722222,
    "pm25_concentration": 12.606060606060606,
    "year": 2016
  },
  {
    "country_name": "Austria",
    "latitude": 48.21333333,
    "longitude": 15.19722222,
    "pm25_concentration": 12.558823529411764,
    "year": 2017
  },
  {
    "country_name": "Austria",
    "latitude": 48.21333333,
    "longitude": 15.19722222,
    "pm25_concentration": 13.515151515151516,
    "year": 2018
  },
  {
    "country_name": "Austria",
    "latitude": 48.21333333,
    "longitude": 15.19722222,
    "pm25_concentration": 11.121212121212121,
    "year": 2019
  },
  {
    "country_name": "Austria",
    "latitude": 48.21333333,
    "longitude": 15.19722222,
    "pm25_concentration": 9.921052631578947,
    "year": 2020
  },
  {
    "country_name": "Austria",
    "latitude": 48.21333333,
    "longitude": 15.19722222,
    "pm25_concentration": 10.390243902439025,
    "year": 2021
  },
  {
    "country_name": "Bahamas",
    "latitude": 25.06254,
    "longitude": -77.34748,
    "pm25_concentration": 5.0,
    "year": 2018
  },
  {
    "country_name": "Bahamas",
    "latitude": 25.06254,
    "longitude": -77.34748,
    "pm25_concentration": 4.0,
    "year": 2019
  },
  {
    "country_name": "Bahrain",
    "latitude": 26.204765,
    "longitude": 50.571119,
    "pm25_concentration": 54.6,
    "year": 2012
  },
  {
    "country_name": "Bahrain",
    "latitude": 26.204765,
    "longitude": 50.571119,
    "pm25_concentration": 62.0,
    "year": 2016
  },
  {
    "country_name": "Bahrain",
    "latitude": 26.204765,
    "longitude": 50.571119,
    "pm25_concentration": 63.0,
    "year": 2017
  },
  {
    "country_name": "Bahrain",
    "latitude": 26.204765,
    "longitude": 50.571119,
    "pm25_concentration": 60.0,
    "year": 2018
  },
  {
    "country_name": "Bahrain",
    "latitude": 26.204765,
    "longitude": 50.571119,
    "pm25_concentration": 43.666666666666664,
    "year": 2019
  },
  {
    "country_name": "Bangladesh",
    "latitude": 23.79637,
    "longitude": 90.42461,
    "pm25_concentration": 92.5,
    "year": 2010
  },
  {
    "country_name": "Bangladesh",
    "latitude": 23.79637,
    "longitude": 90.42461,
    "pm25_concentration": 101.5,
    "year": 2011
  },
  {
    "country_name": "Bangladesh",
    "latitude": 23.79637,
    "longitude": 90.42461,
    "pm25_concentration": 101.0,
    "year": 2012
  },
  {
    "country_name": "Bangladesh",
    "latitude": 23.79637,
    "longitude": 90.42461,
    "pm25_concentration": 76.125,
    "year": 2013
  },
  {
    "country_name": "Bangladesh",
    "latitude": 23.79637,
    "longitude": 90.42461,
    "pm25_concentration": 81.22222222222223,
    "year": 2014
  },
  {
    "country_name": "Bangladesh",
    "latitude": 23.79637,
    "longitude": 90.42461,
    "pm25_concentration": 78.11111111111111,
    "year": 2015
  },
  {
    "country_name": "Bangladesh",
    "latitude": 23.79637,
    "longitude": 90.42461,
    "pm25_concentration": 69.0,
    "year": 2016
  },
  {
    "country_name": "Bangladesh",
    "latitude": 23.79637,
    "longitude": 90.42461,
    "pm25_concentration": 54.666666666666664,
    "year": 2017
  },
  {
    "country_name": "Bangladesh",
    "latitude": 23.79637,
    "longitude": 90.42461,
    "pm25_concentration": 71.875,
    "year": 2018
  },
  {
    "country_name": "Bangladesh",
    "latitude": 23.79637,
    "longitude": 90.42461,
    "pm25_concentration": 86.0,
    "year": 2019
  },
  {
    "country_name": "Belarus",
    "latitude": 53.1449683,
    "longitude": 29.2281209,
    "pm25_concentration": 30.0,
    "year": 2020
  },
  {
    "country_name": "Belgium",
    "latitude": 50.833035,
    "longitude": 3.404508,
    "pm25_concentration": 16.772727272727273,
    "year": 2010
  },
  {
    "country_name": "Belgium",
    "latitude": 50.833035,
    "longitude": 3.404508,
    "pm25_concentration": 14.244444444444444,
    "year": 2013
  },
  {
    "country_name": "Belgium",
    "latitude": 50.833035,
    "longitude": 3.404508,
    "pm25_concentration": 12.0,
    "year": 2014
  },
  {
    "country_name": "Belgium",
    "latitude": 50.833035,
    "longitude": 3.404508,
    "pm25_concentration": 12.609756097560975,
    "year": 2015
  },
  {
    "country_name": "Belgium",
    "latitude": 50.833035,
    "longitude": 3.404508,
    "pm25_concentration": 12.571428571428571,
    "year": 2016
  },
  {
    "country_name": "Belgium",
    "latitude": 50.833035,
    "longitude": 3.404508,
    "pm25_concentration": 12.285714285714286,
    "year": 2017
  },
  {
    "country_name": "Belgium",
    "latitude": 50.833035,
    "longitude": 3.404508,
    "pm25_concentration": 12.857142857142858,
    "year": 2018
  },
  {
    "country_name": "Belgium",
    "latitude": 50.833035,
    "longitude": 3.404508,
    "pm25_concentration": 11.181818181818182,
    "year": 2019
  },
  {
    "country_name": "Belgium",
    "latitude": 50.833035,
    "longitude": 3.404508,
    "pm25_concentration": 9.454545454545455,
    "year": 2020
  },
  {
    "country_name": "Benin",
    "latitude": 6.299147,
    "longitude": 2.332126,
    "pm25_concentration": 8.0,
    "year": 2020
  },
  {
    "country_name": "Bosnia and Herzegovina",
    "latitude": 43.6616,
    "longitude": 18.9775,
    "pm25_concentration": 65.0,
    "year": 2010
  },
  {
    "country_name": "Bosnia and Herzegovina",
    "latitude": 43.6616,
    "longitude": 18.9775,
    "pm25_concentration": 49.0,
    "year": 2016
  },
  {
    "country_name": "Bosnia and Herzegovina",
    "latitude": 43.6616,
    "longitude": 18.9775,
    "pm25_concentration": 46.2,
    "year": 2017
  },
  {
    "country_name": "Bosnia and Herzegovina",
    "latitude": 43.6616,
    "longitude": 18.9775,
    "pm25_concentration": 46.5,
    "year": 2018
  },
  {
    "country_name": "Bosnia and Herzegovina",
    "latitude": 43.6616,
    "longitude": 18.9775,
    "pm25_concentration": 39.333333333333336,
    "year": 2019
  },
  {
    "country_name": "Bosnia and Herzegovina",
    "latitude": 43.6616,
    "longitude": 18.9775,
    "pm25_concentration": 36.42857142857143,
    "year": 2020
  },
  {
    "country_name": "Bosnia and Herzegovina",
    "latitude": 43.6616,
    "longitude": 18.9775,
    "pm25_concentration": 30.444444444444443,
    "year": 2021
  },
  {
    "country_name": "Brazil",
    "latitude": -25.568845,
    "longitude": -49.382167,
    "pm25_concentration": 16.25,
    "year": 2010
  },
  {
    "country_name": "Brazil",
    "latitude": -25.568845,
    "longitude": -49.382167,
    "pm25_concentration": 15.6,
    "year": 2011
  },
  {
    "country_name": "Brazil",
    "latitude": -25.568845,
    "longitude": -49.382167,
    "pm25_concentration": 15.4,
    "year": 2012
  },
  {
    "country_name": "Brazil",
    "latitude": -25.568845,
    "longitude": -49.382167,
    "pm25_concentration": 14.214285714285714,
    "year": 2013
  },
  {
    "country_name": "Brazil",
    "latitude": -25.568845,
    "longitude": -49.382167,
    "pm25_concentration": 16.0,
    "year": 2014
  },
  {
    "country_name": "Brazil",
    "latitude": -25.568845,
    "longitude": -49.382167,
    "pm25_concentration": 13.23076923076923,
    "year": 2015
  },
  {
    "country_name": "Brazil",
    "latitude": -25.568845,
    "longitude": -49.382167,
    "pm25_concentration": 15.666666666666666,
    "year": 2016
  },
  {
    "country_name": "Brazil",
    "latitude": -25.568845,
    "longitude": -49.382167,
    "pm25_concentration": 15.3,
    "year": 2018
  },
  {
    "country_name": "Brazil",
    "latitude": -25.568845,
    "longitude": -49.382167,
    "pm25_concentration": 15.444444444444445,
    "year": 2019
  },
  {
    "country_name": "Bulgaria",
    "latitude": 42.1465,
    "longitude": 25.8754,
    "pm25_concentration": 23.875,
    "year": 2010
  },
  {
    "country_name": "Bulgaria",
    "latitude": 42.1465,
    "longitude": 25.8754,
    "pm25_concentration": 19.09090909090909,
    "year": 2013
  },
  {
    "country_name": "Bulgaria",
    "latitude": 42.1465,
    "longitude": 25.8754,
    "pm25_concentration": 21.5,
    "year": 2014
  },
  {
    "country_name": "Bulgaria",
    "latitude": 42.1465,
    "longitude": 25.8754,
    "pm25_concentration": 20.0,
    "year": 2015
  },
  {
    "country_name": "Bulgaria",
    "latitude": 42.1465,
    "longitude": 25.8754,
    "pm25_concentration": 17.8,
    "year": 2016
  },
  {
    "country_name": "Bulgaria",
    "latitude": 42.1465,
    "longitude": 25.8754,
    "pm25_concentration": 18.125,
    "year": 2017
  },
  {
    "country_name": "Bulgaria",
    "latitude": 42.1465,
    "longitude": 25.8754,
    "pm25_concentration": 19.5,
    "year": 2018
  },
  {
    "country_name": "Bulgaria",
    "latitude": 42.1465,
    "longitude": 25.8754,
    "pm25_concentration": 17.875,
    "year": 2019
  },
  {
    "country_name": "Bulgaria",
    "latitude": 42.1465,
    "longitude": 25.8754,
    "pm25_concentration": 14.666666666666666,
    "year": 2020
  },
  {
    "country_name": "Bulgaria",
    "latitude": 42.1465,
    "longitude": 25.8754,
    "pm25_concentration": 13.285714285714286,
    "year": 2021
  },
  {
    "country_name": "Bulgaria",
    "latitude": 42.1465,
    "longitude": 25.8754,
    "pm25_concentration": 13.0,
    "year": 2022
  },
  {
    "country_name": "Cambodia",
    "latitude": 13.743552,
    "longitude": 106.993592,
    "pm25_concentration": 24.2,
    "year": 2019
  },
  {
    "country_name": "Cambodia",
    "latitude": 13.743552,
    "longitude": 106.993592,
    "pm25_concentration": 17.56,
    "year": 2020
  },
  {
    "country_name": "Cambodia",
    "latitude": 13.743552,
    "longitude": 106.993592,
    "pm25_concentration": 20.04,
    "year": 2021
  },
  {
    "country_name": "Cameroon",
    "latitude": 5.933300018,
    "longitude": 10.16670036,
    "pm25_concentration": 82.66666666666667,
    "year": 2012
  },
  {
    "country_name": "Canada",
    "latitude": 42.912545,
    "longitude": -82.416816,
    "pm25_concentration": 6.882882882882883,
    "year": 2013
  },
  {
    "country_name": "Canada",
    "latitude": 42.912545,
    "longitude": -82.416816,
    "pm25_concentration": 6.873333333333333,
    "year": 2015
  },
  {
    "country_name": "Canada",
    "latitude": 42.912545,
    "longitude": -82.416816,
    "pm25_concentration": 5.795918367346939,
    "year": 2016
  },
  {
    "country_name": "Canada",
    "latitude": 42.912545,
    "longitude": -82.416816,
    "pm25_concentration": 6.72108843537415,
    "year": 2017
  },
  {
    "country_name": "Canada",
    "latitude": 42.912545,
    "longitude": -82.416816,
    "pm25_concentration": 7.384615384615385,
    "year": 2018
  },
  {
    "country_name": "Canada",
    "latitude": 42.912545,
    "longitude": -82.416816,
    "pm25_concentration": 5.854014598540146,
    "year": 2019
  },
  {
    "country_name": "Canada",
    "latitude": 42.912545,
    "longitude": -82.416816,
    "pm25_concentration": 5.994252873563219,
    "year": 2020
  },
  {
    "country_name": "Chile",
    "latitude": -18.48338486,
    "longitude": -70.29058595,
    "pm25_concentration": 25.727272727272727,
    "year": 2010
  },
  {
    "country_name": "Chile",
    "latitude": -18.48338486,
    "longitude": -70.29058595,
    "pm25_concentration": 26.363636363636363,
    "year": 2011
  },
  {
    "country_name": "Chile",
    "latitude": -18.48338486,
    "longitude": -70.29058595,
    "pm25_concentration": 25.0,
    "year": 2012
  },
  {
    "country_name": "Chile",
    "latitude": -18.48338486,
    "longitude": -70.29058595,
    "pm25_concentration": 30.36842105263158,
    "year": 2013
  },
  {
    "country_name": "Chile",
    "latitude": -18.48338486,
    "longitude": -70.29058595,
    "pm25_concentration": 26.242424242424242,
    "year": 2014
  },
  {
    "country_name": "Chile",
    "latitude": -18.48338486,
    "longitude": -70.29058595,
    "pm25_concentration": 25.57894736842105,
    "year": 2015
  },
  {
    "country_name": "Chile",
    "latitude": -18.48338486,
    "longitude": -70.29058595,
    "pm25_concentration": 25.83783783783784,
    "year": 2016
  },
  {
    "country_name": "Chile",
    "latitude": -18.48338486,
    "longitude": -70.29058595,
    "pm25_concentration": 15.0,
    "year": 2018
  },
  {
    "country_name": "Chile",
    "latitude": -18.48338486,
    "longitude": -70.29058595,
    "pm25_concentration": 19.08108108108108,
    "year": 2019
  },
  {
    "country_name": "China",
    "latitude": 38.8395,
    "longitude": 105.69215,
    "pm25_concentration": 75.33333333333333,
    "year": 2011
  },
  {
    "country_name": "China",
    "latitude": 38.8395,
    "longitude": 105.69215,
    "pm25_concentration": 56.8,
    "year": 2012
  },
  {
    "country_name": "China",
    "latitude": 38.8395,
    "longitude": 105.69215,
    "pm25_concentration": 70.89189189189189,
    "year": 2013
  },
  {
    "country_name": "China",
    "latitude": 38.8395,
    "longitude": 105.69215,
    "pm25_concentration": 52.330232558139535,
    "year": 2014
  },
  {
    "country_name": "China",
    "latitude": 38.8395,
    "longitude": 105.69215,
    "pm25_concentration": 49.47445255474452,
    "year": 2015
  },
  {
    "country_name": "China",
    "latitude": 38.8395,
    "longitude": 105.69215,
    "pm25_concentration": 45.6368,
    "year": 2016
  },
  {
    "country_name": "China",
    "latitude": 38.8395,
    "longitude": 105.69215,
    "pm25_concentration": 44.62162162162162,
    "year": 2017
  },
  {
    "country_name": "China",
    "latitude": 38.8395,
    "longitude": 105.69215,
    "pm25_concentration": 40.44700460829493,
    "year": 2018
  },
  {
    "country_name": "China",
    "latitude": 38.8395,
    "longitude": 105.69215,
    "pm25_concentration": 38.551901336073996,
    "year": 2019
  },
  {
    "country_name": "China",
    "latitude": 38.8395,
    "longitude": 105.69215,
    "pm25_concentration": 33.63799283154122,
    "year": 2020
  },
  {
    "country_name": "Colombia",
    "pm25_concentration": 32.0,
    "year": 2010
  },
  {
    "country_name": "Colombia",
    "pm25_concentration": 24.0,
    "year": 2011
  },
  {
    "country_name": "Colombia",
    "pm25_concentration": 24.5,
    "year": 2012
  },
  {
    "country_name": "Colombia",
    "pm25_concentration": 23.0,
    "year": 2013
  },
  {
    "country_name": "Colombia",
    "pm25_concentration": 23.0,
    "year": 2014
  },
  {
    "country_name": "Colombia",
    "pm25_concentration": 25.4,
    "year": 2015
  },
  {
    "country_name": "Colombia",
    "pm25_concentration": 19.5,
    "year": 2016
  },
  {
    "country_name": "Colombia",
    "pm25_concentration": 18.0,
    "year": 2017
  },
  {
    "country_name": "Colombia",
    "pm25_concentration": 17.4,
    "year": 2018
  },
  {
    "country_name": "Colombia",
    "pm25_concentration": 17.9,
    "year": 2019
  },
  {
    "country_name": "Colombia",
    "pm25_concentration": 17.0,
    "year": 2020
  },
  {
    "country_name": "Colombia",
    "pm25_concentration": 16.0,
    "year": 2021
  },
  {
    "country_name": "Costa Rica",
    "latitude": 10.01013279,
    "longitude": -84.01145172,
    "pm25_concentration": 18.5,
    "year": 2013
  },
  {
    "country_name": "Costa Rica",
    "latitude": 10.01013279,
    "longitude": -84.01145172,
    "pm25_concentration": 24.0,
    "year": 2015
  },
  {
    "country_name": "Costa Rica",
    "latitude": 10.01013279,
    "longitude": -84.01145172,
    "pm25_concentration": 22.5,
    "year": 2018
  },
  {
    "country_name": "Costa Rica",
    "latitude": 10.01013279,
    "longitude": -84.01145172,
    "pm25_concentration": 24.5,
    "year": 2019
  },
  {
    "country_name": "Costa Rica",
    "latitude": 10.01013279,
    "longitude": -84.01145172,
    "pm25_concentration": 24.5,
    "year": 2020
  },
  {
    "country_name": "Croatia",
    "latitude": 42.6447,
    "longitude": 18.1226,
    "pm25_concentration": 30.0,
    "year": 2013
  },
  {
    "country_name": "Croatia",
    "latitude": 42.6447,
    "longitude": 18.1226,
    "pm25_concentration": 13.5,
    "year": 2014
  },
  {
    "country_name": "Croatia",
    "latitude": 42.6447,
    "longitude": 18.1226,
    "pm25_concentration": 16.5,
    "year": 2015
  },
  {
    "country_name": "Croatia",
    "latitude": 42.6447,
    "longitude": 18.1226,
    "pm25_concentration": 17.2,
    "year": 2016
  },
  {
    "country_name": "Croatia",
    "latitude": 42.6447,
    "longitude": 18.1226,
    "pm25_concentration": 15.4,
    "year": 2017
  },
  {
    "country_name": "Croatia",
    "latitude": 42.6447,
    "longitude": 18.1226,
    "pm25_concentration": 16.5,
    "year": 2018
  },
  {
    "country_name": "Croatia",
    "latitude": 42.6447,
    "longitude": 18.1226,
    "pm25_concentration": 13.8,
    "year": 2019
  },
  {
    "country_name": "Croatia",
    "latitude": 42.6447,
    "longitude": 18.1226,
    "pm25_concentration": 12.4,
    "year": 2020
  },
  {
    "country_name": "Cuba",
    "latitude": 23.1242,
    "longitude": -82.3747,
    "pm25_concentration": 35.0,
    "year": 2015
  },
  {
    "country_name": "Cyprus",
    "latitude": 34.91361237,
    "longitude": 33.61583328,
    "pm25_concentration": 20.0,
    "year": 2010
  },
  {
    "country_name": "Cyprus",
    "latitude": 34.91361237,
    "longitude": 33.61583328,
    "pm25_concentration": 16.0,
    "year": 2013
  },
  {
    "country_name": "Cyprus",
    "latitude": 34.91361237,
    "longitude": 33.61583328,
    "pm25_concentration": 16.2,
    "year": 2014
  },
  {
    "country_name": "Cyprus",
    "latitude": 34.91361237,
    "longitude": 33.61583328,
    "pm25_concentration": 16.0,
    "year": 2015
  },
  {
    "country_name": "Cyprus",
    "latitude": 34.91361237,
    "longitude": 33.61583328,
    "pm25_concentration": 11.0,
    "year": 2016
  },
  {
    "country_name": "Cyprus",
    "latitude": 34.91361237,
    "longitude": 33.61583328,
    "pm25_concentration": 13.75,
    "year": 2017
  },
  {
    "country_name": "Cyprus",
    "latitude": 34.91361237,
    "longitude": 33.61583328,
    "pm25_concentration": 12.5,
    "year": 2018
  },
  {
    "country_name": "Cyprus",
    "latitude": 34.91361237,
    "longitude": 33.61583328,
    "pm25_concentration": 13.0,
    "year": 2019
  },
  {
    "country_name": "Cyprus",
    "latitude": 34.91361237,
    "longitude": 33.61583328,
    "pm25_concentration": 12.75,
    "year": 2020
  },
  {
    "country_name": "Cyprus",
    "latitude": 34.91361237,
    "longitude": 33.61583328,
    "pm25_concentration": 12.25,
    "year": 2021
  },
  {
    "country_name": "Czechia",
    "latitude": 49.77714129,
    "longitude": 17.54194671,
    "pm25_concentration": 23.666666666666668,
    "year": 2010
  },
  {
    "country_name": "Czechia",
    "latitude": 49.77714129,
    "longitude": 17.54194671,
    "pm25_concentration": 20.52,
    "year": 2013
  },
  {
    "country_name": "Czechia",
    "latitude": 49.77714129,
    "longitude": 17.54194671,
    "pm25_concentration": 19.666666666666668,
    "year": 2014
  },
  {
    "country_name": "Czechia",
    "latitude": 49.77714129,
    "longitude": 17.54194671,
    "pm25_concentration": 19.083333333333332,
    "year": 2015
  },
  {
    "country_name": "Czechia",
    "latitude": 49.77714129,
    "longitude": 17.54194671,
    "pm25_concentration": 18.367346938775512,
    "year": 2016
  },
  {
    "country_name": "Czechia",
    "latitude": 49.77714129,
    "longitude": 17.54194671,
    "pm25_concentration": 18.96,
    "year": 2017
  },
  {
    "country_name": "Czechia",
    "latitude": 49.77714129,
    "longitude": 17.54194671,
    "pm25_concentration": 20.46938775510204,
    "year": 2018
  },
  {
    "country_name": "Czechia",
    "latitude": 49.77714129,
    "longitude": 17.54194671,
    "pm25_concentration": 15.148148148148149,
    "year": 2019
  },
  {
    "country_name": "Czechia",
    "latitude": 49.77714129,
    "longitude": 17.54194671,
    "pm25_concentration": 12.836065573770492,
    "year": 2020
  },
  {
    "country_name": "Czechia",
    "latitude": 49.77714129,
    "longitude": 17.54194671,
    "pm25_concentration": 14.39344262295082,
    "year": 2021
  },
  {
    "country_name": "Denmark",
    "latitude": 57.049444,
    "longitude": 9.924178,
    "pm25_concentration": 14.666666666666666,
    "year": 2010
  },
  {
    "country_name": "Denmark",
    "latitude": 57.049444,
    "longitude": 9.924178,
    "pm25_concentration": 11.166666666666666,
    "year": 2013
  },
  {
    "country_name": "Denmark",
    "latitude": 57.049444,
    "longitude": 9.924178,
    "pm25_concentration": 13.5,
    "year": 2014
  },
  {
    "country_name": "Denmark",
    "latitude": 57.049444,
    "longitude": 9.924178,
    "pm25_concentration": 10.333333333333334,
    "year": 2015
  },
  {
    "country_name": "Denmark",
    "latitude": 57.049444,
    "longitude": 9.924178,
    "pm25_concentration": 10.0,
    "year": 2016
  },
  {
    "country_name": "Denmark",
    "latitude": 57.049444,
    "longitude": 9.924178,
    "pm25_concentration": 9.25,
    "year": 2017
  },
  {
    "country_name": "Denmark",
    "latitude": 57.049444,
    "longitude": 9.924178,
    "pm25_concentration": 12.75,
    "year": 2018
  },
  {
    "country_name": "Denmark",
    "latitude": 57.049444,
    "longitude": 9.924178,
    "pm25_concentration": 10.5,
    "year": 2019
  },
  {
    "country_name": "Denmark",
    "latitude": 57.049444,
    "longitude": 9.924178,
    "pm25_concentration": 7.75,
    "year": 2020
  },
  {
    "country_name": "Dominican Republic",
    "latitude": 19.7893977,
    "longitude": -70.6940515,
    "pm25_concentration": 41.333333333333336,
    "year": 2019
  },
  {
    "country_name": "Dominican Republic",
    "latitude": 19.7893977,
    "longitude": -70.6940515,
    "pm25_concentration": 41.5,
    "year": 2020
  },
  {
    "country_name": "Dominican Republic",
    "latitude": 19.7893977,
    "longitude": -70.6940515,
    "pm25_concentration": 47.0,
    "year": 2021
  },
  {
    "country_name": "Ecuador",
    "latitude": -0.254411012,
    "longitude": -79.17269135,
    "pm25_concentration": 19.0,
    "year": 2010
  },
  {
    "country_name": "Ecuador",
    "latitude": -0.254411012,
    "longitude": -79.17269135,
    "pm25_concentration": 17.0,
    "year": 2011
  },
  {
    "country_name": "Ecuador",
    "latitude": -0.254411012,
    "longitude": -79.17269135,
    "pm25_concentration": 18.0,
    "year": 2012
  },
  {
    "country_name": "Ecuador",
    "latitude": -0.254411012,
    "longitude": -79.17269135,
    "pm25_concentration": 13.5,
    "year": 2013
  },
  {
    "country_name": "Ecuador",
    "latitude": -0.254411012,
    "longitude": -79.17269135,
    "pm25_concentration": 6.0,
    "year": 2014
  },
  {
    "country_name": "Ecuador",
    "latitude": -0.254411012,
    "longitude": -79.17269135,
    "pm25_concentration": 8.0,
    "year": 2015
  },
  {
    "country_name": "Ecuador",
    "latitude": -0.254411012,
    "longitude": -79.17269135,
    "pm25_concentration": 10.0,
    "year": 2016
  },
  {
    "country_name": "Ecuador",
    "latitude": -0.254411012,
    "longitude": -79.17269135,
    "pm25_concentration": 11.0,
    "year": 2017
  },
  {
    "country_name": "Ecuador",
    "latitude": -0.254411012,
    "longitude": -79.17269135,
    "pm25_concentration": 10.0,
    "year": 2018
  },
  {
    "country_name": "Ecuador",
    "latitude": -0.254411012,
    "longitude": -79.17269135,
    "pm25_concentration": 10.0,
    "year": 2019
  },
  {
    "country_name": "Ecuador",
    "latitude": -0.254411012,
    "longitude": -79.17269135,
    "pm25_concentration": 8.0,
    "year": 2020
  },
  {
    "country_name": "El Salvador",
    "latitude": 13.71053028,
    "longitude": -89.17614365,
    "pm25_concentration": 30.0,
    "year": 2010
  },
  {
    "country_name": "El Salvador",
    "latitude": 13.71053028,
    "longitude": -89.17614365,
    "pm25_concentration": 34.0,
    "year": 2011
  },
  {
    "country_name": "El Salvador",
    "latitude": 13.71053028,
    "longitude": -89.17614365,
    "pm25_concentration": 40.0,
    "year": 2012
  },
  {
    "country_name": "El Salvador",
    "latitude": 13.71053028,
    "longitude": -89.17614365,
    "pm25_concentration": 44.0,
    "year": 2013
  },
  {
    "country_name": "El Salvador",
    "latitude": 13.71053028,
    "longitude": -89.17614365,
    "pm25_concentration": 42.0,
    "year": 2014
  },
  {
    "country_name": "El Salvador",
    "latitude": 13.71053028,
    "longitude": -89.17614365,
    "pm25_concentration": 28.0,
    "year": 2015
  },
  {
    "country_name": "El Salvador",
    "latitude": 13.71053028,
    "longitude": -89.17614365,
    "pm25_concentration": 27.0,
    "year": 2016
  },
  {
    "country_name": "El Salvador",
    "latitude": 13.71053028,
    "longitude": -89.17614365,
    "pm25_concentration": 29.0,
    "year": 2018
  },
  {
    "country_name": "Estonia",
    "latitude": 58.3761,
    "longitude": 21.845,
    "pm25_concentration": 7.666666666666667,
    "year": 2010
  },
  {
    "country_name": "Estonia",
    "latitude": 58.3761,
    "longitude": 21.845,
    "pm25_concentration": 6.181818181818182,
    "year": 2013
  },
  {
    "country_name": "Estonia",
    "latitude": 58.3761,
    "longitude": 21.845,
    "pm25_concentration": 7.428571428571429,
    "year": 2014
  },
  {
    "country_name": "Estonia",
    "latitude": 58.3761,
    "longitude": 21.845,
    "pm25_concentration": 5.571428571428571,
    "year": 2015
  },
  {
    "country_name": "Estonia",
    "latitude": 58.3761,
    "longitude": 21.845,
    "pm25_concentration": 5.0,
    "year": 2016
  },
  {
    "country_name": "Estonia",
    "latitude": 58.3761,
    "longitude": 21.845,
    "pm25_concentration": 4.428571428571429,
    "year": 2017
  },
  {
    "country_name": "Estonia",
    "latitude": 58.3761,
    "longitude": 21.845,
    "pm25_concentration": 6.0,
    "year": 2018
  },
  {
    "country_name": "Estonia",
    "latitude": 58.3761,
    "longitude": 21.845,
    "pm25_concentration": 4.571428571428571,
    "year": 2019
  },
  {
    "country_name": "Estonia",
    "latitude": 58.3761,
    "longitude": 21.845,
    "pm25_concentration": 4.428571428571429,
    "year": 2020
  },
  {
    "country_name": "Estonia",
    "latitude": 58.3761,
    "longitude": 21.845,
    "pm25_concentration": 4.857142857142857,
    "year": 2021
  },
  {
    "country_name": "Estonia",
    "latitude": 58.3761,
    "longitude": 21.845,
    "pm25_concentration": 5.142857142857143,
    "year": 2022
  },
  {
    "country_name": "Ethiopia",
    "latitude": 9.037654667,
    "longitude": 38.75035133,
    "pm25_concentration": 29.0,
    "year": 2016
  },
  {
    "country_name": "Ethiopia",
    "latitude": 9.037654667,
    "longitude": 38.75035133,
    "pm25_concentration": 27.0,
    "year": 2017
  },
  {
    "country_name": "Ethiopia",
    "latitude": 9.037654667,
    "longitude": 38.75035133,
    "pm25_concentration": 30.0,
    "year": 2018
  },
  {
    "country_name": "Ethiopia",
    "latitude": 9.037654667,
    "longitude": 38.75035133,
    "pm25_concentration": 20.0,
    "year": 2019
  },
  {
    "country_name": "Fiji",
    "latitude": -18.12,
    "longitude": 178.45,
    "pm25_concentration": 7.0,
    "year": 2014
  },
  {
    "country_name": "Fiji",
    "latitude": -18.12,
    "longitude": 178.45,
    "pm25_concentration": 8.0,
    "year": 2015
  },
  {
    "country_name": "Finland",
    "latitude": 62.5885,
    "longitude": 24.1919,
    "pm25_concentration": 8.416666666666666,
    "year": 2010
  },
  {
    "country_name": "Finland",
    "latitude": 62.5885,
    "longitude": 24.1919,
    "pm25_concentration": 6.25,
    "year": 2013
  },
  {
    "country_name": "Finland",
    "latitude": 62.5885,
    "longitude": 24.1919,
    "pm25_concentration": 7.2727272727272725,
    "year": 2014
  },
  {
    "country_name": "Finland",
    "latitude": 62.5885,
    "longitude": 24.1919,
    "pm25_concentration": 5.454545454545454,
    "year": 2015
  },
  {
    "country_name": "Finland",
    "latitude": 62.5885,
    "longitude": 24.1919,
    "pm25_concentration": 5.545454545454546,
    "year": 2016
  },
  {
    "country_name": "Finland",
    "latitude": 62.5885,
    "longitude": 24.1919,
    "pm25_concentration": 4.181818181818182,
    "year": 2017
  },
  {
    "country_name": "Finland",
    "latitude": 62.5885,
    "longitude": 24.1919,
    "pm25_concentration": 5.6,
    "year": 2018
  },
  {
    "country_name": "Finland",
    "latitude": 62.5885,
    "longitude": 24.1919,
    "pm25_concentration": 4.875,
    "year": 2019
  },
  {
    "country_name": "Finland",
    "latitude": 62.5885,
    "longitude": 24.1919,
    "pm25_concentration": 4.5,
    "year": 2020
  },
  {
    "country_name": "Finland",
    "latitude": 62.5885,
    "longitude": 24.1919,
    "pm25_concentration": 4.714285714285714,
    "year": 2021
  },
  {
    "country_name": "France",
    "latitude": 43.359722,
    "longitude": -0.566944,
    "pm25_concentration": 17.71212121212121,
    "year": 2010
  },
  {
    "country_name": "France",
    "latitude": 43.359722,
    "longitude": -0.566944,
    "pm25_concentration": 15.034883720930232,
    "year": 2013
  },
  {
    "country_name": "France",
    "latitude": 43.359722,
    "longitude": -0.566944,
    "pm25_concentration": 12.358695652173912,
    "year": 2014
  },
  {
    "country_name": "France",
    "latitude": 43.359722,
    "longitude": -0.566944,
    "pm25_concentration": 12.431192660550458,
    "year": 2015
  },
  {
    "country_name": "France",
    "latitude": 43.359722,
    "longitude": -0.566944,
    "pm25_concentration": 11.504587155963304,
    "year": 2016
  },
  {
    "country_name": "France",
    "latitude": 43.359722,
    "longitude": -0.566944,
    "pm25_concentration": 10.81081081081081,
    "year": 2017
  },
  {
    "country_name": "France",
    "latitude": 43.359722,
    "longitude": -0.566944,
    "pm25_concentration": 10.186440677966102,
    "year": 2018
  },
  {
    "country_name": "France",
    "latitude": 43.359722,
    "longitude": -0.566944,
    "pm25_concentration": 9.28688524590164,
    "year": 2019
  },
  {
    "country_name": "France",
    "latitude": 43.359722,
    "longitude": -0.566944,
    "pm25_concentration": 8.390977443609023,
    "year": 2020
  },
  {
    "country_name": "France",
    "latitude": 43.359722,
    "longitude": -0.566944,
    "pm25_concentration": 9.17361111111111,
    "year": 2021
  },
  {
    "country_name": "Georgia",
    "latitude": 41.71513748,
    "longitude": 44.82709503,
    "pm25_concentration": 29.0,
    "year": 2014
  },
  {
    "country_name": "Georgia",
    "latitude": 41.71513748,
    "longitude": 44.82709503,
    "pm25_concentration": 24.0,
    "year": 2015
  },
  {
    "country_name": "Georgia",
    "latitude": 41.71513748,
    "longitude": 44.82709503,
    "pm25_concentration": 20.0,
    "year": 2017
  },
  {
    "country_name": "Germany",
    "latitude": 50.7528,
    "longitude": 9.2704,
    "pm25_concentration": 17.297619047619047,
    "year": 2010
  },
  {
    "country_name": "Germany",
    "latitude": 50.7528,
    "longitude": 9.2704,
    "pm25_concentration": 13.947368421052632,
    "year": 2013
  },
  {
    "country_name": "Germany",
    "latitude": 50.7528,
    "longitude": 9.2704,
    "pm25_concentration": 14.186046511627907,
    "year": 2014
  },
  {
    "country_name": "Germany",
    "latitude": 50.7528,
    "longitude": 9.2704,
    "pm25_concentration": 12.7,
    "year": 2015
  },
  {
    "country_name": "Germany",
    "latitude": 50.7528,
    "longitude": 9.2704,
    "pm25_concentration": 12.23076923076923,
    "year": 2016
  },
  {
    "country_name": "Germany",
    "latitude": 50.7528,
    "longitude": 9.2704,
    "pm25_concentration": 12.006756756756756,
    "year": 2017
  },
  {
    "country_name": "Germany",
    "latitude": 50.7528,
    "longitude": 9.2704,
    "pm25_concentration": 12.529411764705882,
    "year": 2018
  },
  {
    "country_name": "Germany",
    "latitude": 50.7528,
    "longitude": 9.2704,
    "pm25_concentration": 10.352201257861635,
    "year": 2019
  },
  {
    "country_name": "Germany",
    "latitude": 50.7528,
    "longitude": 9.2704,
    "pm25_concentration": 9.037037037037036,
    "year": 2020
  },
  {
    "country_name": "Germany",
    "latitude": 50.7528,
    "longitude": 9.2704,
    "pm25_concentration": 9.335051546391753,
    "year": 2021
  },
  {
    "country_name": "Gibraltar",
    "latitude": 36.12561117,
    "longitude": -5.351857833,
    "pm25_concentration": 14.0,
    "year": 2013
  },
  {
    "country_name": "Gibraltar",
    "latitude": 36.12561117,
    "longitude": -5.351857833,
    "pm25_concentration": 15.0,
    "year": 2014
  },
  {
    "country_name": "Gibraltar",
    "latitude": 36.12561117,
    "longitude": -5.351857833,
    "pm25_concentration": 14.0,
    "year": 2015
  },
  {
    "country_name": "Gibraltar",
    "latitude": 36.12561117,
    "longitude": -5.351857833,
    "pm25_concentration": 13.0,
    "year": 2016
  },
  {
    "country_name": "Gibraltar",
    "latitude": 36.12561117,
    "longitude": -5.351857833,
    "pm25_concentration": 13.0,
    "year": 2017
  },
  {
    "country_name": "Gibraltar",
    "latitude": 36.12561117,
    "longitude": -5.351857833,
    "pm25_concentration": 13.0,
    "year": 2018
  },
  {
    "country_name": "Gibraltar",
    "latitude": 36.12561117,
    "longitude": -5.351857833,
    "pm25_concentration": 12.0,
    "year": 2019
  },
  {
    "country_name": "Greece",
    "latitude": 38.6198,
    "longitude": 21.4095,
    "pm25_concentration": 15.0,
    "year": 2010
  },
  {
    "country_name": "Greece",
    "latitude": 38.6198,
    "longitude": 21.4095,
    "pm25_concentration": 13.0,
    "year": 2013
  },
  {
    "country_name": "Greece",
    "latitude": 38.6198,
    "longitude": 21.4095,
    "pm25_concentration": 16.0,
    "year": 2014
  },
  {
    "country_name": "Greece",
    "latitude": 38.6198,
    "longitude": 21.4095,
    "pm25_concentration": 16.0,
    "year": 2015
  },
  {
    "country_name": "Greece",
    "latitude": 38.6198,
    "longitude": 21.4095,
    "pm25_concentration": 17.666666666666668,
    "year": 2016
  },
  {
    "country_name": "Greece",
    "latitude": 38.6198,
    "longitude": 21.4095,
    "pm25_concentration": 17.857142857142858,
    "year": 2017
  },
  {
    "country_name": "Greece",
    "latitude": 38.6198,
    "longitude": 21.4095,
    "pm25_concentration": 15.833333333333334,
    "year": 2018
  },
  {
    "country_name": "Greece",
    "latitude": 38.6198,
    "longitude": 21.4095,
    "pm25_concentration": 16.625,
    "year": 2019
  },
  {
    "country_name": "Greece",
    "latitude": 38.6198,
    "longitude": 21.4095,
    "pm25_concentration": 14.6,
    "year": 2020
  },
  {
    "country_name": "Greece",
    "latitude": 38.6198,
    "longitude": 21.4095,
    "pm25_concentration": 15.9,
    "year": 2021
  },
  {
    "country_name": "Greece",
    "latitude": 38.6198,
    "longitude": 21.4095,
    "pm25_concentration": 19.666666666666668,
    "year": 2022
  },
  {
    "country_name": "Guatemala",
    "latitude": 14.6072,
    "longitude": -90.51425,
    "pm25_concentration": 41.0,
    "year": 2013
  },
  {
    "country_name": "Guatemala",
    "latitude": 14.6072,
    "longitude": -90.51425,
    "pm25_concentration": 35.0,
    "year": 2014
  },
  {
    "country_name": "Guatemala",
    "latitude": 14.6072,
    "longitude": -90.51425,
    "pm25_concentration": 14.0,
    "year": 2019
  },
  {
    "country_name": "Honduras",
    "latitude": 14.08614492,
    "longitude": -87.19300842,
    "pm25_concentration": 36.0,
    "year": 2013
  },
  {
    "country_name": "Hungary",
    "latitude": 46.966667,
    "longitude": 19.55,
    "pm25_concentration": 21.75,
    "year": 2010
  },
  {
    "country_name": "Hungary",
    "latitude": 46.966667,
    "longitude": 19.55,
    "pm25_concentration": 16.75,
    "year": 2013
  },
  {
    "country_name": "Hungary",
    "latitude": 46.966667,
    "longitude": 19.55,
    "pm25_concentration": 16.75,
    "year": 2014
  },
  {
    "country_name": "Hungary",
    "latitude": 46.966667,
    "longitude": 19.55,
    "pm25_concentration": 10.0,
    "year": 2016
  },
  {
    "country_name": "Hungary",
    "latitude": 46.966667,
    "longitude": 19.55,
    "pm25_concentration": 18.666666666666668,
    "year": 2017
  },
  {
    "country_name": "Hungary",
    "latitude": 46.966667,
    "longitude": 19.55,
    "pm25_concentration": 18.285714285714285,
    "year": 2018
  },
  {
    "country_name": "Hungary",
    "latitude": 46.966667,
    "longitude": 19.55,
    "pm25_concentration": 14.625,
    "year": 2019
  },
  {
    "country_name": "Hungary",
    "latitude": 46.966667,
    "longitude": 19.55,
    "pm25_concentration": 13.909090909090908,
    "year": 2020
  },
  {
    "country_name": "Iceland",
    "latitude": 65.6888,
    "longitude": -18.1008,
    "pm25_concentration": 7.5,
    "year": 2010
  },
  {
    "country_name": "Iceland",
    "latitude": 65.6888,
    "longitude": -18.1008,
    "pm25_concentration": 6.5,
    "year": 2013
  },
  {
    "country_name": "Iceland",
    "latitude": 65.6888,
    "longitude": -18.1008,
    "pm25_concentration": 5.0,
    "year": 2014
  },
  {
    "country_name": "Iceland",
    "latitude": 65.6888,
    "longitude": -18.1008,
    "pm25_concentration": 5.5,
    "year": 2015
  },
  {
    "country_name": "Iceland",
    "latitude": 65.6888,
    "longitude": -18.1008,
    "pm25_concentration": 4.0,
    "year": 2016
  },
  {
    "country_name": "Iceland",
    "latitude": 65.6888,
    "longitude": -18.1008,
    "pm25_concentration": 3.8,
    "year": 2017
  },
  {
    "country_name": "Iceland",
    "latitude": 65.6888,
    "longitude": -18.1008,
    "pm25_concentration": 5.0,
    "year": 2018
  },
  {
    "country_name": "Iceland",
    "latitude": 65.6888,
    "longitude": -18.1008,
    "pm25_concentration": 4.0,
    "year": 2019
  },
  {
    "country_name": "Iceland",
    "latitude": 65.6888,
    "longitude": -18.1008,
    "pm25_concentration": 3.5,
    "year": 2020
  },
  {
    "country_name": "India",
    "latitude": 13.08784,
    "longitude": 80.27847,
    "pm25_concentration": 99.0,
    "year": 2010
  },
  {
    "country_name": "India",
    "latitude": 13.08784,
    "longitude": 80.27847,
    "pm25_concentration": 110.5,
    "year": 2011
  },
  {
    "country_name": "India",
    "latitude": 13.08784,
    "longitude": 80.27847,
    "pm25_concentration": 83.0,
    "year": 2012
  },
  {
    "country_name": "India",
    "latitude": 13.08784,
    "longitude": 80.27847,
    "pm25_concentration": 131.25,
    "year": 2013
  },
  {
    "country_name": "India",
    "latitude": 13.08784,
    "longitude": 80.27847,
    "pm25_concentration": 92.14285714285714,
    "year": 2014
  },
  {
    "country_name": "India",
    "latitude": 13.08784,
    "longitude": 80.27847,
    "pm25_concentration": 76.0,
    "year": 2015
  },
  {
    "country_name": "India",
    "latitude": 13.08784,
    "longitude": 80.27847,
    "pm25_concentration": 83.8529411764706,
    "year": 2016
  },
  {
    "country_name": "India",
    "latitude": 13.08784,
    "longitude": 80.27847,
    "pm25_concentration": 103.8,
    "year": 2017
  },
  {
    "country_name": "India",
    "latitude": 13.08784,
    "longitude": 80.27847,
    "pm25_concentration": 76.0,
    "year": 2018
  },
  {
    "country_name": "India",
    "latitude": 13.08784,
    "longitude": 80.27847,
    "pm25_concentration": 64.66666666666667,
    "year": 2019
  },
  {
    "country_name": "India",
    "latitude": 13.08784,
    "longitude": 80.27847,
    "pm25_concentration": 36.231404958677686,
    "year": 2020
  },
  {
    "country_name": "Indonesia",
    "latitude": -6.914700031,
    "longitude": 107.6098022,
    "pm25_concentration": 12.5,
    "year": 2011
  },
  {
    "country_name": "Indonesia",
    "latitude": -6.914700031,
    "longitude": 107.6098022,
    "pm25_concentration": 33.0,
    "year": 2014
  },
  {
    "country_name": "Indonesia",
    "latitude": -6.914700031,
    "longitude": 107.6098022,
    "pm25_concentration": 42.666666666666664,
    "year": 2016
  },
  {
    "country_name": "Indonesia",
    "latitude": -6.914700031,
    "longitude": 107.6098022,
    "pm25_concentration": 9.0,
    "year": 2017
  },
  {
    "country_name": "Indonesia",
    "latitude": -6.914700031,
    "longitude": 107.6098022,
    "pm25_concentration": 18.5,
    "year": 2018
  },
  {
    "country_name": "Indonesia",
    "latitude": -6.914700031,
    "longitude": 107.6098022,
    "pm25_concentration": 26.666666666666668,
    "year": 2019
  },
  {
    "country_name": "Indonesia",
    "latitude": -6.914700031,
    "longitude": 107.6098022,
    "pm25_concentration": 16.0,
    "year": 2020
  },
  {
    "country_name": "Indonesia",
    "latitude": -6.914700031,
    "longitude": 107.6098022,
    "pm25_concentration": 18.833333333333332,
    "year": 2021
  },
  {
    "country_name": "Iran (Islamic Republic of)",
    "latitude": 30.347296,
    "longitude": 48.2934,
    "pm25_concentration": 42.333333333333336,
    "year": 2011
  },
  {
    "country_name": "Iran (Islamic Republic of)",
    "latitude": 30.347296,
    "longitude": 48.2934,
    "pm25_concentration": 36.333333333333336,
    "year": 2012
  },
  {
    "country_name": "Iran (Islamic Republic of)",
    "latitude": 30.347296,
    "longitude": 48.2934,
    "pm25_concentration": 43.625,
    "year": 2013
  },
  {
    "country_name": "Iran (Islamic Republic of)",
    "latitude": 30.347296,
    "longitude": 48.2934,
    "pm25_concentration": 35.0,
    "year": 2014
  },
  {
    "country_name": "Iran (Islamic Republic of)",
    "latitude": 30.347296,
    "longitude": 48.2934,
    "pm25_concentration": 30.0,
    "year": 2015
  },
  {
    "country_name": "Iran (Islamic Republic of)",
    "latitude": 30.347296,
    "longitude": 48.2934,
    "pm25_concentration": 31.8,
    "year": 2016
  },
  {
    "country_name": "Iran (Islamic Republic of)",
    "latitude": 30.347296,
    "longitude": 48.2934,
    "pm25_concentration": 43.5,
    "year": 2017
  },
  {
    "country_name": "Iran (Islamic Republic of)",
    "latitude": 30.347296,
    "longitude": 48.2934,
    "pm25_concentration": 29.88235294117647,
    "year": 2018
  },
  {
    "country_name": "Iran (Islamic Republic of)",
    "latitude": 30.347296,
    "longitude": 48.2934,
    "pm25_concentration": 23.85,
    "year": 2019
  },
  {
    "country_name": "Iran (Islamic Republic of)",
    "latitude": 30.347296,
    "longitude": 48.2934,
    "pm25_concentration": 27.0,
    "year": 2020
  },
  {
    "country_name": "Iraq",
    "latitude": 32.76222222,
    "longitude": 44.66222222,
    "pm25_concentration": 44.5,
    "year": 2019
  },
  {
    "country_name": "Iraq",
    "latitude": 32.76222222,
    "longitude": 44.66222222,
    "pm25_concentration": 44.0,
    "year": 2021
  },
  {
    "country_name": "Ireland",
    "latitude": 53.368175,
    "longitude": -6.227857,
    "pm25_concentration": 11.5,
    "year": 2010
  },
  {
    "country_name": "Ireland",
    "latitude": 53.368175,
    "longitude": -6.227857,
    "pm25_concentration": 10.666666666666666,
    "year": 2013
  },
  {
    "country_name": "Ireland",
    "latitude": 53.368175,
    "longitude": -6.227857,
    "pm25_concentration": 11.333333333333334,
    "year": 2014
  },
  {
    "country_name": "Ireland",
    "latitude": 53.368175,
    "longitude": -6.227857,
    "pm25_concentration": 7.25,
    "year": 2015
  },
  {
    "country_name": "Ireland",
    "latitude": 53.368175,
    "longitude": -6.227857,
    "pm25_concentration": 9.0,
    "year": 2016
  },
  {
    "country_name": "Ireland",
    "latitude": 53.368175,
    "longitude": -6.227857,
    "pm25_concentration": 7.5,
    "year": 2017
  },
  {
    "country_name": "Ireland",
    "latitude": 53.368175,
    "longitude": -6.227857,
    "pm25_concentration": 7.833333333333333,
    "year": 2018
  },
  {
    "country_name": "Ireland",
    "latitude": 53.368175,
    "longitude": -6.227857,
    "pm25_concentration": 9.222222222222221,
    "year": 2019
  },
  {
    "country_name": "Ireland",
    "latitude": 53.368175,
    "longitude": -6.227857,
    "pm25_concentration": 8.6,
    "year": 2020
  },
  {
    "country_name": "Ireland",
    "latitude": 53.368175,
    "longitude": -6.227857,
    "pm25_concentration": 8.56,
    "year": 2021
  },
  {
    "country_name": "Israel",
    "latitude": 31.93498028,
    "longitude": 34.90866766,
    "pm25_concentration": 21.41176470588235,
    "year": 2012
  },
  {
    "country_name": "Israel",
    "latitude": 31.93498028,
    "longitude": 34.90866766,
    "pm25_concentration": 22.0,
    "year": 2013
  },
  {
    "country_name": "Israel",
    "latitude": 31.93498028,
    "longitude": 34.90866766,
    "pm25_concentration": 19.833333333333332,
    "year": 2014
  },
  {
    "country_name": "Israel",
    "latitude": 31.93498028,
    "longitude": 34.90866766,
    "pm25_concentration": 23.176470588235293,
    "year": 2015
  },
  {
    "country_name": "Israel",
    "latitude": 31.93498028,
    "longitude": 34.90866766,
    "pm25_concentration": 18.24,
    "year": 2016
  },
  {
    "country_name": "Israel",
    "latitude": 31.93498028,
    "longitude": 34.90866766,
    "pm25_concentration": 17.923076923076923,
    "year": 2017
  },
  {
    "country_name": "Israel",
    "latitude": 31.93498028,
    "longitude": 34.90866766,
    "pm25_concentration": 18.727272727272727,
    "year": 2018
  },
  {
    "country_name": "Israel",
    "latitude": 31.93498028,
    "longitude": 34.90866766,
    "pm25_concentration": 18.970588235294116,
    "year": 2019
  },
  {
    "country_name": "Israel",
    "latitude": 31.93498028,
    "longitude": 34.90866766,
    "pm25_concentration": 16.08108108108108,
    "year": 2020
  },
  {
    "country_name": "Israel",
    "latitude": 31.93498028,
    "longitude": 34.90866766,
    "pm25_concentration": 17.372093023255815,
    "year": 2021
  },
  {
    "country_name": "Italy",
    "latitude": 45.30861,
    "longitude": 9.58611,
    "pm25_concentration": 20.129411764705882,
    "year": 2010
  },
  {
    "country_name": "Italy",
    "latitude": 45.30861,
    "longitude": 9.58611,
    "pm25_concentration": 18.063157894736843,
    "year": 2013
  },
  {
    "country_name": "Italy",
    "latitude": 45.30861,
    "longitude": 9.58611,
    "pm25_concentration": 15.74390243902439,
    "year": 2014
  },
  {
    "country_name": "Italy",
    "latitude": 45.30861,
    "longitude": 9.58611,
    "pm25_concentration": 18.565934065934066,
    "year": 2015
  },
  {
    "country_name": "Italy",
    "latitude": 45.30861,
    "longitude": 9.58611,
    "pm25_concentration": 16.272251308900522,
    "year": 2016
  },
  {
    "country_name": "Italy",
    "latitude": 45.30861,
    "longitude": 9.58611,
    "pm25_concentration": 17.019704433497537,
    "year": 2017
  },
  {
    "country_name": "Italy",
    "latitude": 45.30861,
    "longitude": 9.58611,
    "pm25_concentration": 15.145539906103286,
    "year": 2018
  },
  {
    "country_name": "Italy",
    "latitude": 45.30861,
    "longitude": 9.58611,
    "pm25_concentration": 14.22072072072072,
    "year": 2019
  },
  {
    "country_name": "Italy",
    "latitude": 45.30861,
    "longitude": 9.58611,
    "pm25_concentration": 14.571428571428571,
    "year": 2020
  },
  {
    "country_name": "Italy",
    "latitude": 45.30861,
    "longitude": 9.58611,
    "pm25_concentration": 13.422131147540984,
    "year": 2021
  },
  {
    "country_name": "Jamaica",
    "latitude": 17.9712148,
    "longitude": -76.7928128,
    "pm25_concentration": 17.0,
    "year": 2019
  },
  {
    "country_name": "Jamaica",
    "latitude": 17.9712148,
    "longitude": -76.7928128,
    "pm25_concentration": 14.0,
    "year": 2020
  },
  {
    "country_name": "Jamaica",
    "latitude": 17.9712148,
    "longitude": -76.7928128,
    "pm25_concentration": 11.5,
    "year": 2021
  },
  {
    "country_name": "Japan",
    "latitude": 35.6089318,
    "longitude": 140.1246365,
    "pm25_concentration": 10.666666666666666,
    "year": 2010
  },
  {
    "country_name": "Japan",
    "latitude": 35.6089318,
    "longitude": 140.1246365,
    "pm25_concentration": 16.8,
    "year": 2011
  },
  {
    "country_name": "Japan",
    "latitude": 35.6089318,
    "longitude": 140.1246365,
    "pm25_concentration": 14.666666666666666,
    "year": 2012
  },
  {
    "country_name": "Japan",
    "latitude": 35.6089318,
    "longitude": 140.1246365,
    "pm25_concentration": 14.933333333333334,
    "year": 2014
  },
  {
    "country_name": "Japan",
    "latitude": 35.6089318,
    "longitude": 140.1246365,
    "pm25_concentration": 11.466666666666667,
    "year": 2018
  },
  {
    "country_name": "Japan",
    "latitude": 35.6089318,
    "longitude": 140.1246365,
    "pm25_concentration": 10.066666666666666,
    "year": 2019
  },
  {
    "country_name": "Jordan",
    "latitude": 31.161256,
    "longitude": 35.759296,
    "pm25_concentration": 26.0,
    "year": 2015
  },
  {
    "country_name": "Jordan",
    "latitude": 31.161256,
    "longitude": 35.759296,
    "pm25_concentration": 27.0,
    "year": 2019
  },
  {
    "country_name": "Jordan",
    "latitude": 31.161256,
    "longitude": 35.759296,
    "pm25_concentration": 27.0,
    "year": 2021
  },
  {
    "country_name": "Kazakhstan",
    "latitude": 51.127645,
    "longitude": 71.46861,
    "pm25_concentration": 32.0,
    "year": 2018
  },
  {
    "country_name": "Kazakhstan",
    "latitude": 51.127645,
    "longitude": 71.46861,
    "pm25_concentration": 22.0,
    "year": 2019
  },
  {
    "country_name": "Kenya",
    "latitude": -1.234149,
    "longitude": 36.810791,
    "pm25_concentration": 11.0,
    "year": 2019
  },
  {
    "country_name": "Kenya",
    "latitude": -1.234149,
    "longitude": 36.810791,
    "pm25_concentration": 13.0,
    "year": 2021
  },
  {
    "country_name": "Kuwait",
    "latitude": 29.091028,
    "longitude": 48.075078,
    "pm25_concentration": 55.5,
    "year": 2014
  },
  {
    "country_name": "Kuwait",
    "latitude": 29.091028,
    "longitude": 48.075078,
    "pm25_concentration": 67.33333333333333,
    "year": 2015
  },
  {
    "country_name": "Kuwait",
    "latitude": 29.091028,
    "longitude": 48.075078,
    "pm25_concentration": 36.666666666666664,
    "year": 2016
  },
  {
    "country_name": "Kuwait",
    "latitude": 29.091028,
    "longitude": 48.075078,
    "pm25_concentration": 66.0,
    "year": 2017
  },
  {
    "country_name": "Kuwait",
    "latitude": 29.091028,
    "longitude": 48.075078,
    "pm25_concentration": 57.0,
    "year": 2018
  },
  {
    "country_name": "Kuwait",
    "latitude": 29.091028,
    "longitude": 48.075078,
    "pm25_concentration": 46.25,
    "year": 2019
  },
  {
    "country_name": "Kuwait",
    "latitude": 29.091028,
    "longitude": 48.075078,
    "pm25_concentration": 37.4,
    "year": 2020
  },
  {
    "country_name": "Kuwait",
    "latitude": 29.091028,
    "longitude": 48.075078,
    "pm25_concentration": 43.8,
    "year": 2021
  },
  {
    "country_name": "Kyrgyzstan",
    "latitude": 42.8273,
    "longitude": 74.5833,
    "pm25_concentration": 33.0,
    "year": 2019
  },
  {
    "country_name": "Lao People's Democratic Republic",
    "latitude": 17.89612,
    "longitude": 102.64,
    "pm25_concentration": 26.0,
    "year": 2019
  },
  {
    "country_name": "Latvia",
    "latitude": 56.95844267,
    "longitude": 24.12245,
    "pm25_concentration": 17.666666666666668,
    "year": 2010
  },
  {
    "country_name": "Latvia",
    "latitude": 56.95844267,
    "longitude": 24.12245,
    "pm25_concentration": 13.0,
    "year": 2013
  },
  {
    "country_name": "Latvia",
    "latitude": 56.95844267,
    "longitude": 24.12245,
    "pm25_concentration": 16.6,
    "year": 2014
  },
  {
    "country_name": "Latvia",
    "latitude": 56.95844267,
    "longitude": 24.12245,
    "pm25_concentration": 15.0,
    "year": 2015
  },
  {
    "country_name": "Latvia",
    "latitude": 56.95844267,
    "longitude": 24.12245,
    "pm25_concentration": 13.8,
    "year": 2016
  },
  {
    "country_name": "Latvia",
    "latitude": 56.95844267,
    "longitude": 24.12245,
    "pm25_concentration": 12.8,
    "year": 2017
  },
  {
    "country_name": "Latvia",
    "latitude": 56.95844267,
    "longitude": 24.12245,
    "pm25_concentration": 14.0,
    "year": 2018
  },
  {
    "country_name": "Latvia",
    "latitude": 56.95844267,
    "longitude": 24.12245,
    "pm25_concentration": 11.4,
    "year": 2019
  },
  {
    "country_name": "Latvia",
    "latitude": 56.95844267,
    "longitude": 24.12245,
    "pm25_concentration": 11.0,
    "year": 2020
  },
  {
    "country_name": "Latvia",
    "latitude": 56.95844267,
    "longitude": 24.12245,
    "pm25_concentration": 13.8,
    "year": 2021
  },
  {
    "country_name": "Lebanon",
    "latitude": 33.89993321,
    "longitude": 35.46664524,
    "pm25_concentration": 30.0,
    "year": 2012
  },
  {
    "country_name": "Lebanon",
    "latitude": 33.89993321,
    "longitude": 35.46664524,
    "pm25_concentration": 29.5,
    "year": 2014
  },
  {
    "country_name": "Lebanon",
    "latitude": 33.89993321,
    "longitude": 35.46664524,
    "pm25_concentration": 15.0,
    "year": 2015
  },
  {
    "country_name": "Lebanon",
    "latitude": 33.89993321,
    "longitude": 35.46664524,
    "pm25_concentration": 19.0,
    "year": 2016
  },
  {
    "country_name": "Lithuania",
    "latitude": 54.0925,
    "longitude": 24.2897,
    "pm25_concentration": 15.666666666666666,
    "year": 2010
  },
  {
    "country_name": "Lithuania",
    "latitude": 54.0925,
    "longitude": 24.2897,
    "pm25_concentration": 13.11111111111111,
    "year": 2013
  },
  {
    "country_name": "Lithuania",
    "latitude": 54.0925,
    "longitude": 24.2897,
    "pm25_concentration": 13.5,
    "year": 2014
  },
  {
    "country_name": "Lithuania",
    "latitude": 54.0925,
    "longitude": 24.2897,
    "pm25_concentration": 11.5,
    "year": 2015
  },
  {
    "country_name": "Lithuania",
    "latitude": 54.0925,
    "longitude": 24.2897,
    "pm25_concentration": 10.333333333333334,
    "year": 2016
  },
  {
    "country_name": "Lithuania",
    "latitude": 54.0925,
    "longitude": 24.2897,
    "pm25_concentration": 10.666666666666666,
    "year": 2017
  },
  {
    "country_name": "Lithuania",
    "latitude": 54.0925,
    "longitude": 24.2897,
    "pm25_concentration": 12.666666666666666,
    "year": 2018
  },
  {
    "country_name": "Lithuania",
    "latitude": 54.0925,
    "longitude": 24.2897,
    "pm25_concentration": 12.166666666666666,
    "year": 2019
  },
  {
    "country_name": "Lithuania",
    "latitude": 54.0925,
    "longitude": 24.2897,
    "pm25_concentration": 8.666666666666666,
    "year": 2020
  },
  {
    "country_name": "Lithuania",
    "latitude": 54.0925,
    "longitude": 24.2897,
    "pm25_concentration": 9.857142857142858,
    "year": 2021
  },
  {
    "country_name": "Lithuania",
    "latitude": 54.0925,
    "longitude": 24.2897,
    "pm25_concentration": 5.0,
    "year": 2022
  },
  {
    "country_name": "Luxembourg",
    "latitude": 49.5671,
    "longitude": 5.911,
    "pm25_concentration": 14.0,
    "year": 2010
  },
  {
    "country_name": "Luxembourg",
    "latitude": 49.5671,
    "longitude": 5.911,
    "pm25_concentration": 15.6,
    "year": 2013
  },
  {
    "country_name": "Luxembourg",
    "latitude": 49.5671,
    "longitude": 5.911,
    "pm25_concentration": 12.666666666666666,
    "year": 2014
  },
  {
    "country_name": "Luxembourg",
    "latitude": 49.5671,
    "longitude": 5.911,
    "pm25_concentration": 11.0,
    "year": 2015
  },
  {
    "country_name": "Luxembourg",
    "latitude": 49.5671,
    "longitude": 5.911,
    "pm25_concentration": 11.0,
    "year": 2016
  },
  {
    "country_name": "Luxembourg",
    "latitude": 49.5671,
    "longitude": 5.911,
    "pm25_concentration": 10.333333333333334,
    "year": 2017
  },
  {
    "country_name": "Luxembourg",
    "latitude": 49.5671,
    "longitude": 5.911,
    "pm25_concentration": 9.666666666666666,
    "year": 2018
  },
  {
    "country_name": "Luxembourg",
    "latitude": 49.5671,
    "longitude": 5.911,
    "pm25_concentration": 8.666666666666666,
    "year": 2019
  },
  {
    "country_name": "Luxembourg",
    "latitude": 49.5671,
    "longitude": 5.911,
    "pm25_concentration": 8.666666666666666,
    "year": 2020
  },
  {
    "country_name": "Madagascar",
    "latitude": -18.913592,
    "longitude": 47.524882,
    "pm25_concentration": 8.0,
    "year": 2015
  },
  {
    "country_name": "Madagascar",
    "latitude": -18.913592,
    "longitude": 47.524882,
    "pm25_concentration": 128.0,
    "year": 2017
  },
  {
    "country_name": "Madagascar",
    "latitude": -18.913592,
    "longitude": 47.524882,
    "pm25_concentration": 19.0,
    "year": 2019
  },
  {
    "country_name": "Madagascar",
    "latitude": -18.913592,
    "longitude": 47.524882,
    "pm25_concentration": 32.0,
    "year": 2020
  },
  {
    "country_name": "Malaysia",
    "latitude": 5.976474,
    "longitude": 116.115777,
    "pm25_concentration": 21.0,
    "year": 2010
  },
  {
    "country_name": "Malaysia",
    "latitude": 5.976474,
    "longitude": 116.115777,
    "pm25_concentration": 15.0,
    "year": 2012
  },
  {
    "country_name": "Malaysia",
    "latitude": 5.976474,
    "longitude": 116.115777,
    "pm25_concentration": 21.0,
    "year": 2019
  },
  {
    "country_name": "Malta",
    "latitude": 35.89,
    "longitude": 14.4345,
    "pm25_concentration": 15.0,
    "year": 2010
  },
  {
    "country_name": "Malta",
    "latitude": 35.89,
    "longitude": 14.4345,
    "pm25_concentration": 13.0,
    "year": 2013
  },
  {
    "country_name": "Malta",
    "latitude": 35.89,
    "longitude": 14.4345,
    "pm25_concentration": 12.0,
    "year": 2014
  },
  {
    "country_name": "Malta",
    "latitude": 35.89,
    "longitude": 14.4345,
    "pm25_concentration": 13.25,
    "year": 2015
  },
  {
    "country_name": "Malta",
    "latitude": 35.89,
    "longitude": 14.4345,
    "pm25_concentration": 11.75,
    "year": 2016
  },
  {
    "country_name": "Malta",
    "latitude": 35.89,
    "longitude": 14.4345,
    "pm25_concentration": 11.5,
    "year": 2017
  },
  {
    "country_name": "Malta",
    "latitude": 35.89,
    "longitude": 14.4345,
    "pm25_concentration": 12.0,
    "year": 2018
  },
  {
    "country_name": "Malta",
    "latitude": 35.89,
    "longitude": 14.4345,
    "pm25_concentration": 11.75,
    "year": 2019
  },
  {
    "country_name": "Malta",
    "latitude": 35.89,
    "longitude": 14.4345,
    "pm25_concentration": 9.5,
    "year": 2020
  },
  {
    "country_name": "Mexico",
    "latitude": 20.42527778,
    "longitude": -101.1980556,
    "pm25_concentration": 22.625,
    "year": 2010
  },
  {
    "country_name": "Mexico",
    "latitude": 20.42527778,
    "longitude": -101.1980556,
    "pm25_concentration": 26.25,
    "year": 2011
  },
  {
    "country_name": "Mexico",
    "latitude": 20.42527778,
    "longitude": -101.1980556,
    "pm25_concentration": 24.0,
    "year": 2012
  },
  {
    "country_name": "Mexico",
    "latitude": 20.42527778,
    "longitude": -101.1980556,
    "pm25_concentration": 25.416666666666668,
    "year": 2013
  },
  {
    "country_name": "Mexico",
    "latitude": 20.42527778,
    "longitude": -101.1980556,
    "pm25_concentration": 22.916666666666668,
    "year": 2014
  },
  {
    "country_name": "Mexico",
    "latitude": 20.42527778,
    "longitude": -101.1980556,
    "pm25_concentration": 23.25,
    "year": 2015
  },
  {
    "country_name": "Mexico",
    "latitude": 20.42527778,
    "longitude": -101.1980556,
    "pm25_concentration": 22.4,
    "year": 2016
  },
  {
    "country_name": "Mexico",
    "latitude": 20.42527778,
    "longitude": -101.1980556,
    "pm25_concentration": 22.066666666666666,
    "year": 2017
  },
  {
    "country_name": "Mexico",
    "latitude": 20.42527778,
    "longitude": -101.1980556,
    "pm25_concentration": 19.657894736842106,
    "year": 2018
  },
  {
    "country_name": "Monaco",
    "latitude": 43.73267245,
    "longitude": 7.42118079,
    "pm25_concentration": 6.0,
    "year": 2021
  },
  {
    "country_name": "Mongolia",
    "latitude": 48.0041667,
    "longitude": 91.6405556,
    "pm25_concentration": 40.0,
    "year": 2010
  },
  {
    "country_name": "Mongolia",
    "latitude": 48.0041667,
    "longitude": 91.6405556,
    "pm25_concentration": 132.0,
    "year": 2011
  },
  {
    "country_name": "Mongolia",
    "latitude": 48.0041667,
    "longitude": 91.6405556,
    "pm25_concentration": 106.0,
    "year": 2012
  },
  {
    "country_name": "Mongolia",
    "latitude": 48.0041667,
    "longitude": 91.6405556,
    "pm25_concentration": 78.0,
    "year": 2013
  },
  {
    "country_name": "Mongolia",
    "latitude": 48.0041667,
    "longitude": 91.6405556,
    "pm25_concentration": 64.0,
    "year": 2014
  },
  {
    "country_name": "Mongolia",
    "latitude": 48.0041667,
    "longitude": 91.6405556,
    "pm25_concentration": 66.0,
    "year": 2015
  },
  {
    "country_name": "Mongolia",
    "latitude": 48.0041667,
    "longitude": 91.6405556,
    "pm25_concentration": 79.0,
    "year": 2016
  },
  {
    "country_name": "Mongolia",
    "latitude": 48.0041667,
    "longitude": 91.6405556,
    "pm25_concentration": 86.0,
    "year": 2017
  },
  {
    "country_name": "Mongolia",
    "latitude": 48.0041667,
    "longitude": 91.6405556,
    "pm25_concentration": 74.0,
    "year": 2018
  },
  {
    "country_name": "Mongolia",
    "latitude": 48.0041667,
    "longitude": 91.6405556,
    "pm25_concentration": 60.0,
    "year": 2019
  },
  {
    "country_name": "Montenegro",
    "latitude": 42.1003,
    "longitude": 19.1035,
    "pm25_concentration": 26.75,
    "year": 2020
  },
  {
    "country_name": "Myanmar",
    "latitude": 16.81909669,
    "longitude": 96.17256033,
    "pm25_concentration": 20.0,
    "year": 2018
  },
  {
    "country_name": "Myanmar",
    "latitude": 16.81909669,
    "longitude": 96.17256033,
    "pm25_concentration": 22.0,
    "year": 2019
  },
  {
    "country_name": "Myanmar",
    "latitude": 16.81909669,
    "longitude": 96.17256033,
    "pm25_concentration": 20.0,
    "year": 2020
  },
  {
    "country_name": "Myanmar",
    "latitude": 16.81909669,
    "longitude": 96.17256033,
    "pm25_concentration": 28.0,
    "year": 2021
  },
  {
    "country_name": "Nepal",
    "latitude": 27.738703,
    "longitude": 85.336205,
    "pm25_concentration": 49.0,
    "year": 2013
  },
  {
    "country_name": "Nepal",
    "latitude": 27.738703,
    "longitude": 85.336205,
    "pm25_concentration": 42.0,
    "year": 2016
  },
  {
    "country_name": "Nepal",
    "latitude": 27.738703,
    "longitude": 85.336205,
    "pm25_concentration": 39.25,
    "year": 2017
  },
  {
    "country_name": "Nepal",
    "latitude": 27.738703,
    "longitude": 85.336205,
    "pm25_concentration": 49.0,
    "year": 2018
  },
  {
    "country_name": "Nepal",
    "latitude": 27.738703,
    "longitude": 85.336205,
    "pm25_concentration": 26.0,
    "year": 2019
  },
  {
    "country_name": "Nepal",
    "latitude": 27.738703,
    "longitude": 85.336205,
    "pm25_concentration": 36.5,
    "year": 2020
  },
  {
    "country_name": "Netherlands",
    "latitude": 52.32138824,
    "longitude": 4.98889446,
    "pm25_concentration": 16.94736842105263,
    "year": 2010
  },
  {
    "country_name": "Netherlands",
    "latitude": 52.32138824,
    "longitude": 4.98889446,
    "pm25_concentration": 14.208333333333334,
    "year": 2013
  },
  {
    "country_name": "Netherlands",
    "latitude": 52.32138824,
    "longitude": 4.98889446,
    "pm25_concentration": 13.166666666666666,
    "year": 2014
  },
  {
    "country_name": "Netherlands",
    "latitude": 52.32138824,
    "longitude": 4.98889446,
    "pm25_concentration": 12.142857142857142,
    "year": 2015
  },
  {
    "country_name": "Netherlands",
    "latitude": 52.32138824,
    "longitude": 4.98889446,
    "pm25_concentration": 10.56,
    "year": 2016
  },
  {
    "country_name": "Netherlands",
    "latitude": 52.32138824,
    "longitude": 4.98889446,
    "pm25_concentration": 10.88,
    "year": 2017
  },
  {
    "country_name": "Netherlands",
    "latitude": 52.32138824,
    "longitude": 4.98889446,
    "pm25_concentration": 12.08,
    "year": 2018
  },
  {
    "country_name": "Netherlands",
    "latitude": 52.32138824,
    "longitude": 4.98889446,
    "pm25_concentration": 10.68,
    "year": 2019
  },
  {
    "country_name": "Netherlands",
    "latitude": 52.32138824,
    "longitude": 4.98889446,
    "pm25_concentration": 8.96,
    "year": 2020
  },
  {
    "country_name": "New Zealand",
    "latitude": 174.0801792,
    "longitude": -39.05902648,
    "pm25_concentration": 10.75,
    "year": 2012
  },
  {
    "country_name": "New Zealand",
    "latitude": 174.0801792,
    "longitude": -39.05902648,
    "pm25_concentration": 9.0,
    "year": 2014
  },
  {
    "country_name": "New Zealand",
    "latitude": 174.0801792,
    "longitude": -39.05902648,
    "pm25_concentration": 7.2,
    "year": 2015
  },
  {
    "country_name": "New Zealand",
    "latitude": 174.0801792,
    "longitude": -39.05902648,
    "pm25_concentration": 8.5,
    "year": 2016
  },
  {
    "country_name": "New Zealand",
    "latitude": 174.0801792,
    "longitude": -39.05902648,
    "pm25_concentration": 9.4,
    "year": 2017
  },
  {
    "country_name": "New Zealand",
    "latitude": 174.0801792,
    "longitude": -39.05902648,
    "pm25_concentration": 8.0,
    "year": 2018
  },
  {
    "country_name": "New Zealand",
    "latitude": 174.0801792,
    "longitude": -39.05902648,
    "pm25_concentration": 8.6,
    "year": 2019
  },
  {
    "country_name": "New Zealand",
    "latitude": 174.0801792,
    "longitude": -39.05902648,
    "pm25_concentration": 8.1,
    "year": 2020
  },
  {
    "country_name": "New Zealand",
    "latitude": 174.0801792,
    "longitude": -39.05902648,
    "pm25_concentration": 6.0,
    "year": 2021
  },
  {
    "country_name": "Nigeria",
    "latitude": 10.45789671,
    "longitude": 7.423270941,
    "pm25_concentration": 26.5,
    "year": 2010
  },
  {
    "country_name": "Nigeria",
    "latitude": 10.45789671,
    "longitude": 7.423270941,
    "pm25_concentration": 90.0,
    "year": 2013
  },
  {
    "country_name": "North Macedonia",
    "latitude": 41.4406,
    "longitude": 22.0072,
    "pm25_concentration": 34.5,
    "year": 2013
  },
  {
    "country_name": "North Macedonia",
    "latitude": 41.4406,
    "longitude": 22.0072,
    "pm25_concentration": 45.5,
    "year": 2015
  },
  {
    "country_name": "North Macedonia",
    "latitude": 41.4406,
    "longitude": 22.0072,
    "pm25_concentration": 40.5,
    "year": 2016
  },
  {
    "country_name": "North Macedonia",
    "latitude": 41.4406,
    "longitude": 22.0072,
    "pm25_concentration": 43.5,
    "year": 2017
  },
  {
    "country_name": "North Macedonia",
    "latitude": 41.4406,
    "longitude": 22.0072,
    "pm25_concentration": 25.866666666666667,
    "year": 2021
  },
  {
    "country_name": "Norway",
    "latitude": 62.4706,
    "longitude": 6.1535,
    "pm25_concentration": 10.571428571428571,
    "year": 2010
  },
  {
    "country_name": "Norway",
    "latitude": 62.4706,
    "longitude": 6.1535,
    "pm25_concentration": 9.181818181818182,
    "year": 2013
  },
  {
    "country_name": "Norway",
    "latitude": 62.4706,
    "longitude": 6.1535,
    "pm25_concentration": 7.2727272727272725,
    "year": 2014
  },
  {
    "country_name": "Norway",
    "latitude": 62.4706,
    "longitude": 6.1535,
    "pm25_concentration": 6.666666666666667,
    "year": 2015
  },
  {
    "country_name": "Norway",
    "latitude": 62.4706,
    "longitude": 6.1535,
    "pm25_concentration": 7.0,
    "year": 2016
  },
  {
    "country_name": "Norway",
    "latitude": 62.4706,
    "longitude": 6.1535,
    "pm25_concentration": 6.35,
    "year": 2017
  },
  {
    "country_name": "Norway",
    "latitude": 62.4706,
    "longitude": 6.1535,
    "pm25_concentration": 7.185185185185185,
    "year": 2018
  },
  {
    "country_name": "Norway",
    "latitude": 62.4706,
    "longitude": 6.1535,
    "pm25_concentration": 6.5,
    "year": 2019
  },
  {
    "country_name": "Norway",
    "latitude": 62.4706,
    "longitude": 6.1535,
    "pm25_concentration": 5.208333333333333,
    "year": 2020
  },
  {
    "country_name": "Norway",
    "latitude": 62.4706,
    "longitude": 6.1535,
    "pm25_concentration": 6.454545454545454,
    "year": 2021
  },
  {
    "country_name": "Norway",
    "latitude": 62.4706,
    "longitude": 6.1535,
    "pm25_concentration": 2.5,
    "year": 2022
  },
  {
    "country_name": "Pakistan",
    "latitude": 33.68330765,
    "longitude": 73.06439972,
    "pm25_concentration": 95.33333333333333,
    "year": 2010
  },
  {
    "country_name": "Pakistan",
    "latitude": 33.68330765,
    "longitude": 73.06439972,
    "pm25_concentration": 66.0,
    "year": 2011
  },
  {
    "country_name": "Pakistan",
    "latitude": 33.68330765,
    "longitude": 73.06439972,
    "pm25_concentration": 36.0,
    "year": 2013
  },
  {
    "country_name": "Pakistan",
    "latitude": 33.68330765,
    "longitude": 73.06439972,
    "pm25_concentration": 38.0,
    "year": 2018
  },
  {
    "country_name": "Pakistan",
    "latitude": 33.68330765,
    "longitude": 73.06439972,
    "pm25_concentration": 71.75,
    "year": 2019
  },
  {
    "country_name": "Pakistan",
    "latitude": 33.68330765,
    "longitude": 73.06439972,
    "pm25_concentration": 32.0,
    "year": 2020
  },
  {
    "country_name": "Panama",
    "latitude": 8.966840426,
    "longitude": -79.54186757,
    "pm25_concentration": 14.0,
    "year": 2013
  },
  {
    "country_name": "Paraguay",
    "latitude": -25.30067571,
    "longitude": -57.62930552,
    "pm25_concentration": 18.0,
    "year": 2010
  },
  {
    "country_name": "Peru",
    "latitude": -12.0636,
    "longitude": -77.125855,
    "pm25_concentration": 52.0,
    "year": 2008
  },
  {
    "country_name": "Peru",
    "latitude": -12.0636,
    "longitude": -77.125855,
    "pm25_concentration": 42.5,
    "year": 2009
  },
  {
    "country_name": "Peru",
    "latitude": -12.0636,
    "longitude": -77.125855,
    "pm25_concentration": 30.75,
    "year": 2010
  },
  {
    "country_name": "Peru",
    "latitude": -12.0636,
    "longitude": -77.125855,
    "pm25_concentration": 31.0,
    "year": 2011
  },
  {
    "country_name": "Peru",
    "latitude": -12.0636,
    "longitude": -77.125855,
    "pm25_concentration": 41.5,
    "year": 2012
  },
  {
    "country_name": "Peru",
    "latitude": -12.0636,
    "longitude": -77.125855,
    "pm25_concentration": 38.0,
    "year": 2013
  },
  {
    "country_name": "Peru",
    "latitude": -12.0636,
    "longitude": -77.125855,
    "pm25_concentration": 31.2,
    "year": 2014
  },
  {
    "country_name": "Peru",
    "latitude": -12.0636,
    "longitude": -77.125855,
    "pm25_concentration": 27.8,
    "year": 2015
  },
  {
    "country_name": "Peru",
    "latitude": -12.0636,
    "longitude": -77.125855,
    "pm25_concentration": 27.666666666666668,
    "year": 2016
  },
  {
    "country_name": "Peru",
    "latitude": -12.0636,
    "longitude": -77.125855,
    "pm25_concentration": 24.0,
    "year": 2017
  },
  {
    "country_name": "Peru",
    "latitude": -12.0636,
    "longitude": -77.125855,
    "pm25_concentration": 26.0,
    "year": 2018
  },
  {
    "country_name": "Peru",
    "latitude": -12.0636,
    "longitude": -77.125855,
    "pm25_concentration": 24.333333333333332,
    "year": 2019
  },
  {
    "country_name": "Philippines",
    "latitude": 14.756578,
    "longitude": 121.044977,
    "pm25_concentration": 17.0,
    "year": 2014
  },
  {
    "country_name": "Philippines",
    "latitude": 14.756578,
    "longitude": 121.044977,
    "pm25_concentration": 27.333333333333332,
    "year": 2015
  },
  {
    "country_name": "Philippines",
    "latitude": 14.756578,
    "longitude": 121.044977,
    "pm25_concentration": 26.833333333333332,
    "year": 2016
  },
  {
    "country_name": "Poland",
    "latitude": 51.8352,
    "longitude": 20.7919,
    "pm25_concentration": 29.414634146341463,
    "year": 2010
  },
  {
    "country_name": "Poland",
    "latitude": 51.8352,
    "longitude": 20.7919,
    "pm25_concentration": 24.593023255813954,
    "year": 2013
  },
  {
    "country_name": "Poland",
    "latitude": 51.8352,
    "longitude": 20.7919,
    "pm25_concentration": 24.746268656716417,
    "year": 2014
  },
  {
    "country_name": "Poland",
    "latitude": 51.8352,
    "longitude": 20.7919,
    "pm25_concentration": 23.257142857142856,
    "year": 2015
  },
  {
    "country_name": "Poland",
    "latitude": 51.8352,
    "longitude": 20.7919,
    "pm25_concentration": 22.32857142857143,
    "year": 2016
  },
  {
    "country_name": "Poland",
    "latitude": 51.8352,
    "longitude": 20.7919,
    "pm25_concentration": 22.933333333333334,
    "year": 2017
  },
  {
    "country_name": "Poland",
    "latitude": 51.8352,
    "longitude": 20.7919,
    "pm25_concentration": 23.272727272727273,
    "year": 2018
  },
  {
    "country_name": "Poland",
    "latitude": 51.8352,
    "longitude": 20.7919,
    "pm25_concentration": 18.7816091954023,
    "year": 2019
  },
  {
    "country_name": "Poland",
    "latitude": 51.8352,
    "longitude": 20.7919,
    "pm25_concentration": 16.84536082474227,
    "year": 2020
  },
  {
    "country_name": "Portugal",
    "latitude": 38.785,
    "longitude": -9.347222,
    "pm25_concentration": 8.066666666666666,
    "year": 2010
  },
  {
    "country_name": "Portugal",
    "latitude": 38.785,
    "longitude": -9.347222,
    "pm25_concentration": 7.473684210526316,
    "year": 2013
  },
  {
    "country_name": "Portugal",
    "latitude": 38.785,
    "longitude": -9.347222,
    "pm25_concentration": 6.777777777777778,
    "year": 2014
  },
  {
    "country_name": "Portugal",
    "latitude": 38.785,
    "longitude": -9.347222,
    "pm25_concentration": 8.578947368421053,
    "year": 2015
  },
  {
    "country_name": "Portugal",
    "latitude": 38.785,
    "longitude": -9.347222,
    "pm25_concentration": 6.777777777777778,
    "year": 2016
  },
  {
    "country_name": "Portugal",
    "latitude": 38.785,
    "longitude": -9.347222,
    "pm25_concentration": 8.23076923076923,
    "year": 2017
  },
  {
    "country_name": "Portugal",
    "latitude": 38.785,
    "longitude": -9.347222,
    "pm25_concentration": 7.125,
    "year": 2018
  },
  {
    "country_name": "Portugal",
    "latitude": 38.785,
    "longitude": -9.347222,
    "pm25_concentration": 6.0,
    "year": 2019
  },
  {
    "country_name": "Portugal",
    "latitude": 38.785,
    "longitude": -9.347222,
    "pm25_concentration": 5.833333333333333,
    "year": 2020
  },
  {
    "country_name": "Puerto Rico",
    "latitude": -66.1057,
    "longitude": -66.1057,
    "pm25_concentration": 13.0,
    "year": 2018
  },
  {
    "country_name": "Qatar",
    "latitude": 25.3217778,
    "longitude": 51.4727583,
    "pm25_concentration": 89.0,
    "year": 2012
  },
  {
    "country_name": "Qatar",
    "latitude": 25.3217778,
    "longitude": 51.4727583,
    "pm25_concentration": 44.0,
    "year": 2017
  },
  {
    "country_name": "Qatar",
    "latitude": 25.3217778,
    "longitude": 51.4727583,
    "pm25_concentration": 44.0,
    "year": 2018
  },
  {
    "country_name": "Qatar",
    "latitude": 25.3217778,
    "longitude": 51.4727583,
    "pm25_concentration": 41.0,
    "year": 2019
  },
  {
    "country_name": "Qatar",
    "latitude": 25.3217778,
    "longitude": 51.4727583,
    "pm25_concentration": 33.0,
    "year": 2020
  },
  {
    "country_name": "Qatar",
    "latitude": 25.3217778,
    "longitude": 51.4727583,
    "pm25_concentration": 38.0,
    "year": 2021
  },
  {
    "country_name": "Republic of Korea",
    "latitude": 37.65198889,
    "longitude": 126.7778889,
    "pm25_concentration": 27.238095238095237,
    "year": 2015
  },
  {
    "country_name": "Republic of Korea",
    "latitude": 37.65198889,
    "longitude": 126.7778889,
    "pm25_concentration": 26.708333333333332,
    "year": 2016
  },
  {
    "country_name": "Republic of Korea",
    "latitude": 37.65198889,
    "longitude": 126.7778889,
    "pm25_concentration": 25.36842105263158,
    "year": 2017
  },
  {
    "country_name": "Republic of Korea",
    "latitude": 37.65198889,
    "longitude": 126.7778889,
    "pm25_concentration": 23.333333333333332,
    "year": 2018
  },
  {
    "country_name": "Republic of Korea",
    "latitude": 37.65198889,
    "longitude": 126.7778889,
    "pm25_concentration": 23.73913043478261,
    "year": 2019
  },
  {
    "country_name": "Romania",
    "latitude": 43.9804,
    "longitude": 25.3125,
    "pm25_concentration": 15.777777777777779,
    "year": 2010
  },
  {
    "country_name": "Romania",
    "latitude": 43.9804,
    "longitude": 25.3125,
    "pm25_concentration": 16.42105263157895,
    "year": 2013
  },
  {
    "country_name": "Romania",
    "latitude": 43.9804,
    "longitude": 25.3125,
    "pm25_concentration": 15.083333333333334,
    "year": 2014
  },
  {
    "country_name": "Romania",
    "latitude": 43.9804,
    "longitude": 25.3125,
    "pm25_concentration": 16.727272727272727,
    "year": 2015
  },
  {
    "country_name": "Romania",
    "latitude": 43.9804,
    "longitude": 25.3125,
    "pm25_concentration": 16.0,
    "year": 2016
  },
  {
    "country_name": "Romania",
    "latitude": 43.9804,
    "longitude": 25.3125,
    "pm25_concentration": 19.235294117647058,
    "year": 2017
  },
  {
    "country_name": "Romania",
    "latitude": 43.9804,
    "longitude": 25.3125,
    "pm25_concentration": 16.863636363636363,
    "year": 2018
  },
  {
    "country_name": "Romania",
    "latitude": 43.9804,
    "longitude": 25.3125,
    "pm25_concentration": 16.714285714285715,
    "year": 2019
  },
  {
    "country_name": "Romania",
    "latitude": 43.9804,
    "longitude": 25.3125,
    "pm25_concentration": 14.142857142857142,
    "year": 2020
  },
  {
    "country_name": "Romania",
    "latitude": 43.9804,
    "longitude": 25.3125,
    "pm25_concentration": 14.52,
    "year": 2021
  },
  {
    "country_name": "Russian Federation",
    "latitude": 55.737624,
    "longitude": 37.631597,
    "pm25_concentration": 14.0,
    "year": 2016
  },
  {
    "country_name": "Saudi Arabia",
    "latitude": 24.722399,
    "longitude": 46.661616,
    "pm25_concentration": 45.6,
    "year": 2021
  },
  {
    "country_name": "Saudi Arabia",
    "latitude": 24.722399,
    "longitude": 46.661616,
    "pm25_concentration": 38.82,
    "year": 2022
  },
  {
    "country_name": "Senegal",
    "latitude": 14.726953,
    "longitude": -17.45776,
    "pm25_concentration": 33.0,
    "year": 2013
  },
  {
    "country_name": "Senegal",
    "latitude": 14.726953,
    "longitude": -17.45776,
    "pm25_concentration": 26.0,
    "year": 2014
  },
  {
    "country_name": "Senegal",
    "latitude": 14.726953,
    "longitude": -17.45776,
    "pm25_concentration": 33.0,
    "year": 2015
  },
  {
    "country_name": "Senegal",
    "latitude": 14.726953,
    "longitude": -17.45776,
    "pm25_concentration": 27.0,
    "year": 2016
  },
  {
    "country_name": "Senegal",
    "latitude": 14.726953,
    "longitude": -17.45776,
    "pm25_concentration": 20.0,
    "year": 2017
  },
  {
    "country_name": "Senegal",
    "latitude": 14.726953,
    "longitude": -17.45776,
    "pm25_concentration": 42.0,
    "year": 2018
  },
  {
    "country_name": "Serbia",
    "latitude": 44.7987,
    "longitude": 20.4502,
    "pm25_concentration": 23.0,
    "year": 2016
  },
  {
    "country_name": "Serbia",
    "latitude": 44.7987,
    "longitude": 20.4502,
    "pm25_concentration": 23.5,
    "year": 2021
  },
  {
    "country_name": "Singapore",
    "latitude": 1.28967,
    "longitude": 103.85007,
    "pm25_concentration": 17.0,
    "year": 2010
  },
  {
    "country_name": "Singapore",
    "latitude": 1.28967,
    "longitude": 103.85007,
    "pm25_concentration": 17.0,
    "year": 2011
  },
  {
    "country_name": "Singapore",
    "latitude": 1.28967,
    "longitude": 103.85007,
    "pm25_concentration": 19.0,
    "year": 2012
  },
  {
    "country_name": "Singapore",
    "latitude": 1.28967,
    "longitude": 103.85007,
    "pm25_concentration": 20.0,
    "year": 2013
  },
  {
    "country_name": "Singapore",
    "latitude": 1.28967,
    "longitude": 103.85007,
    "pm25_concentration": 18.0,
    "year": 2014
  },
  {
    "country_name": "Singapore",
    "latitude": 1.28967,
    "longitude": 103.85007,
    "pm25_concentration": 24.0,
    "year": 2015
  },
  {
    "country_name": "Singapore",
    "latitude": 1.28967,
    "longitude": 103.85007,
    "pm25_concentration": 15.0,
    "year": 2016
  },
  {
    "country_name": "Singapore",
    "latitude": 1.28967,
    "longitude": 103.85007,
    "pm25_concentration": 14.0,
    "year": 2017
  },
  {
    "country_name": "Singapore",
    "latitude": 1.28967,
    "longitude": 103.85007,
    "pm25_concentration": 15.0,
    "year": 2018
  },
  {
    "country_name": "Singapore",
    "latitude": 1.28967,
    "longitude": 103.85007,
    "pm25_concentration": 16.0,
    "year": 2019
  },
  {
    "country_name": "Singapore",
    "latitude": 1.28967,
    "longitude": 103.85007,
    "pm25_concentration": 11.0,
    "year": 2020
  },
  {
    "country_name": "Singapore",
    "latitude": 1.28967,
    "longitude": 103.85007,
    "pm25_concentration": 12.0,
    "year": 2021
  },
  {
    "country_name": "Slovakia",
    "latitude": 48.7829,
    "longitude": 20.9872,
    "pm25_concentration": 21.6,
    "year": 2010
  },
  {
    "country_name": "Slovakia",
    "latitude": 48.7829,
    "longitude": 20.9872,
    "pm25_concentration": 18.75,
    "year": 2013
  },
  {
    "country_name": "Slovakia",
    "latitude": 48.7829,
    "longitude": 20.9872,
    "pm25_concentration": 19.083333333333332,
    "year": 2014
  },
  {
    "country_name": "Slovakia",
    "latitude": 48.7829,
    "longitude": 20.9872,
    "pm25_concentration": 17.88235294117647,
    "year": 2015
  },
  {
    "country_name": "Slovakia",
    "latitude": 48.7829,
    "longitude": 20.9872,
    "pm25_concentration": 16.208333333333332,
    "year": 2016
  },
  {
    "country_name": "Slovakia",
    "latitude": 48.7829,
    "longitude": 20.9872,
    "pm25_concentration": 18.962962962962962,
    "year": 2017
  },
  {
    "country_name": "Slovakia",
    "latitude": 48.7829,
    "longitude": 20.9872,
    "pm25_concentration": 18.11111111111111,
    "year": 2018
  },
  {
    "country_name": "Slovakia",
    "latitude": 48.7829,
    "longitude": 20.9872,
    "pm25_concentration": 15.592592592592593,
    "year": 2019
  },
  {
    "country_name": "Slovakia",
    "latitude": 48.7829,
    "longitude": 20.9872,
    "pm25_concentration": 14.74074074074074,
    "year": 2020
  },
  {
    "country_name": "Slovakia",
    "latitude": 48.7829,
    "longitude": 20.9872,
    "pm25_concentration": 16.424242424242426,
    "year": 2021
  },
  {
    "country_name": "Slovenia",
    "latitude": 46.128609,
    "longitude": 15.113903,
    "pm25_concentration": 19.0,
    "year": 2010
  },
  {
    "country_name": "Slovenia",
    "latitude": 46.128609,
    "longitude": 15.113903,
    "pm25_concentration": 15.75,
    "year": 2013
  },
  {
    "country_name": "Slovenia",
    "latitude": 46.128609,
    "longitude": 15.113903,
    "pm25_concentration": 15.0,
    "year": 2014
  },
  {
    "country_name": "Slovenia",
    "latitude": 46.128609,
    "longitude": 15.113903,
    "pm25_concentration": 17.666666666666668,
    "year": 2015
  },
  {
    "country_name": "Slovenia",
    "latitude": 46.128609,
    "longitude": 15.113903,
    "pm25_concentration": 17.333333333333332,
    "year": 2016
  },
  {
    "country_name": "Slovenia",
    "latitude": 46.128609,
    "longitude": 15.113903,
    "pm25_concentration": 16.333333333333332,
    "year": 2017
  },
  {
    "country_name": "Slovenia",
    "latitude": 46.128609,
    "longitude": 15.113903,
    "pm25_concentration": 15.25,
    "year": 2018
  },
  {
    "country_name": "Slovenia",
    "latitude": 46.128609,
    "longitude": 15.113903,
    "pm25_concentration": 12.5,
    "year": 2019
  },
  {
    "country_name": "Slovenia",
    "latitude": 46.128609,
    "longitude": 15.113903,
    "pm25_concentration": 13.0,
    "year": 2020
  },
  {
    "country_name": "South Africa",
    "latitude": -26.1794444,
    "longitude": 28.1361111,
    "pm25_concentration": 34.5,
    "year": 2010
  },
  {
    "country_name": "South Africa",
    "latitude": -26.1794444,
    "longitude": 28.1361111,
    "pm25_concentration": 45.333333333333336,
    "year": 2011
  },
  {
    "country_name": "South Africa",
    "latitude": -26.1794444,
    "longitude": 28.1361111,
    "pm25_concentration": 35.23076923076923,
    "year": 2012
  },
  {
    "country_name": "South Africa",
    "latitude": -26.1794444,
    "longitude": 28.1361111,
    "pm25_concentration": 25.285714285714285,
    "year": 2013
  },
  {
    "country_name": "South Africa",
    "latitude": -26.1794444,
    "longitude": 28.1361111,
    "pm25_concentration": 25.533333333333335,
    "year": 2014
  },
  {
    "country_name": "South Africa",
    "latitude": -26.1794444,
    "longitude": 28.1361111,
    "pm25_concentration": 19.375,
    "year": 2015
  },
  {
    "country_name": "South Africa",
    "latitude": -26.1794444,
    "longitude": 28.1361111,
    "pm25_concentration": 23.0,
    "year": 2016
  },
  {
    "country_name": "South Africa",
    "latitude": -26.1794444,
    "longitude": 28.1361111,
    "pm25_concentration": 15.8,
    "year": 2017
  },
  {
    "country_name": "South Africa",
    "latitude": -26.1794444,
    "longitude": 28.1361111,
    "pm25_concentration": 22.5,
    "year": 2018
  },
  {
    "country_name": "South Africa",
    "latitude": -26.1794444,
    "longitude": 28.1361111,
    "pm25_concentration": 21.0,
    "year": 2019
  },
  {
    "country_name": "South Africa",
    "latitude": -26.1794444,
    "longitude": 28.1361111,
    "pm25_concentration": 22.714285714285715,
    "year": 2020
  },
  {
    "country_name": "South Africa",
    "latitude": -26.1794444,
    "longitude": 28.1361111,
    "pm25_concentration": 22.333333333333332,
    "year": 2021
  },
  {
    "country_name": "Spain",
    "latitude": 43.0414,
    "longitude": -5.0897,
    "pm25_concentration": 9.850746268656716,
    "year": 2010
  },
  {
    "country_name": "Spain",
    "latitude": 43.0414,
    "longitude": -5.0897,
    "pm25_concentration": 12.666666666666666,
    "year": 2011
  },
  {
    "country_name": "Spain",
    "latitude": 43.0414,
    "longitude": -5.0897,
    "pm25_concentration": 12.714285714285714,
    "year": 2012
  },
  {
    "country_name": "Spain",
    "latitude": 43.0414,
    "longitude": -5.0897,
    "pm25_concentration": 8.465648854961833,
    "year": 2013
  },
  {
    "country_name": "Spain",
    "latitude": 43.0414,
    "longitude": -5.0897,
    "pm25_concentration": 9.060975609756097,
    "year": 2014
  },
  {
    "country_name": "Spain",
    "latitude": 43.0414,
    "longitude": -5.0897,
    "pm25_concentration": 9.787878787878787,
    "year": 2015
  },
  {
    "country_name": "Spain",
    "latitude": 43.0414,
    "longitude": -5.0897,
    "pm25_concentration": 8.63302752293578,
    "year": 2016
  },
  {
    "country_name": "Spain",
    "latitude": 43.0414,
    "longitude": -5.0897,
    "pm25_concentration": 9.490384615384615,
    "year": 2017
  },
  {
    "country_name": "Spain",
    "latitude": 43.0414,
    "longitude": -5.0897,
    "pm25_concentration": 9.0,
    "year": 2018
  },
  {
    "country_name": "Spain",
    "latitude": 43.0414,
    "longitude": -5.0897,
    "pm25_concentration": 8.779816513761467,
    "year": 2019
  },
  {
    "country_name": "Spain",
    "latitude": 43.0414,
    "longitude": -5.0897,
    "pm25_concentration": 8.623931623931623,
    "year": 2020
  },
  {
    "country_name": "Spain",
    "latitude": 43.0414,
    "longitude": -5.0897,
    "pm25_concentration": 8.745098039215685,
    "year": 2021
  },
  {
    "country_name": "Sri Lanka",
    "latitude": 6.911625,
    "longitude": 79.849345,
    "pm25_concentration": 31.0,
    "year": 2017
  },
  {
    "country_name": "Sri Lanka",
    "latitude": 6.911625,
    "longitude": 79.849345,
    "pm25_concentration": 32.0,
    "year": 2018
  },
  {
    "country_name": "Sri Lanka",
    "latitude": 6.911625,
    "longitude": 79.849345,
    "pm25_concentration": 24.0,
    "year": 2019
  },
  {
    "country_name": "Sweden",
    "latitude": 55.6603,
    "longitude": 13.1009,
    "pm25_concentration": 7.2,
    "year": 2010
  },
  {
    "country_name": "Sweden",
    "latitude": 55.6603,
    "longitude": 13.1009,
    "pm25_concentration": 5.538461538461538,
    "year": 2013
  },
  {
    "country_name": "Sweden",
    "latitude": 55.6603,
    "longitude": 13.1009,
    "pm25_concentration": 7.333333333333333,
    "year": 2014
  },
  {
    "country_name": "Sweden",
    "latitude": 55.6603,
    "longitude": 13.1009,
    "pm25_concentration": 6.0,
    "year": 2015
  },
  {
    "country_name": "Sweden",
    "latitude": 55.6603,
    "longitude": 13.1009,
    "pm25_concentration": 5.625,
    "year": 2016
  },
  {
    "country_name": "Sweden",
    "latitude": 55.6603,
    "longitude": 13.1009,
    "pm25_concentration": 4.695652173913044,
    "year": 2017
  },
  {
    "country_name": "Sweden",
    "latitude": 55.6603,
    "longitude": 13.1009,
    "pm25_concentration": 6.2631578947368425,
    "year": 2018
  },
  {
    "country_name": "Sweden",
    "latitude": 55.6603,
    "longitude": 13.1009,
    "pm25_concentration": 5.277777777777778,
    "year": 2019
  },
  {
    "country_name": "Sweden",
    "latitude": 55.6603,
    "longitude": 13.1009,
    "pm25_concentration": 5.473684210526316,
    "year": 2020
  },
  {
    "country_name": "Sweden",
    "latitude": 55.6603,
    "longitude": 13.1009,
    "pm25_concentration": 5.2,
    "year": 2021
  },
  {
    "country_name": "Switzerland",
    "latitude": 46.3196078,
    "longitude": 6.93634082,
    "pm25_concentration": 14.666666666666666,
    "year": 2011
  },
  {
    "country_name": "Switzerland",
    "latitude": 46.3196078,
    "longitude": 6.93634082,
    "pm25_concentration": 12.555555555555555,
    "year": 2012
  },
  {
    "country_name": "Switzerland",
    "latitude": 46.3196078,
    "longitude": 6.93634082,
    "pm25_concentration": 13.555555555555555,
    "year": 2013
  },
  {
    "country_name": "Switzerland",
    "latitude": 46.3196078,
    "longitude": 6.93634082,
    "pm25_concentration": 8.88888888888889,
    "year": 2014
  },
  {
    "country_name": "Switzerland",
    "latitude": 46.3196078,
    "longitude": 6.93634082,
    "pm25_concentration": 11.363636363636363,
    "year": 2015
  },
  {
    "country_name": "Switzerland",
    "latitude": 46.3196078,
    "longitude": 6.93634082,
    "pm25_concentration": 9.916666666666666,
    "year": 2016
  },
  {
    "country_name": "Switzerland",
    "latitude": 46.3196078,
    "longitude": 6.93634082,
    "pm25_concentration": 11.478260869565217,
    "year": 2017
  },
  {
    "country_name": "Switzerland",
    "latitude": 46.3196078,
    "longitude": 6.93634082,
    "pm25_concentration": 11.121212121212121,
    "year": 2018
  },
  {
    "country_name": "Switzerland",
    "latitude": 46.3196078,
    "longitude": 6.93634082,
    "pm25_concentration": 9.351851851851851,
    "year": 2019
  },
  {
    "country_name": "Switzerland",
    "latitude": 46.3196078,
    "longitude": 6.93634082,
    "pm25_concentration": 9.053571428571429,
    "year": 2020
  },
  {
    "country_name": "Switzerland",
    "latitude": 46.3196078,
    "longitude": 6.93634082,
    "pm25_concentration": 9.10909090909091,
    "year": 2021
  },
  {
    "country_name": "Thailand",
    "latitude": 14.022376,
    "longitude": 99.536195,
    "pm25_concentration": 28.0,
    "year": 2015
  },
  {
    "country_name": "Thailand",
    "latitude": 14.022376,
    "longitude": 99.536195,
    "pm25_concentration": 24.6875,
    "year": 2019
  },
  {
    "country_name": "Thailand",
    "latitude": 14.022376,
    "longitude": 99.536195,
    "pm25_concentration": 20.638297872340427,
    "year": 2021
  },
  {
    "country_name": "Trinidad and Tobago",
    "latitude": 10.4160327,
    "longitude": -61.4746778,
    "pm25_concentration": 12.0,
    "year": 2016
  },
  {
    "country_name": "Trinidad and Tobago",
    "latitude": 10.4160327,
    "longitude": -61.4746778,
    "pm25_concentration": 15.0,
    "year": 2017
  },
  {
    "country_name": "Trinidad and Tobago",
    "latitude": 10.4160327,
    "longitude": -61.4746778,
    "pm25_concentration": 12.0,
    "year": 2018
  },
  {
    "country_name": "Trinidad and Tobago",
    "latitude": 10.4160327,
    "longitude": -61.4746778,
    "pm25_concentration": 11.666666666666666,
    "year": 2019
  },
  {
    "country_name": "T\u00fcrkiye",
    "latitude": 40.755,
    "longitude": 30.6502,
    "pm25_concentration": 25.227272727272727,
    "year": 2015
  },
  {
    "country_name": "T\u00fcrkiye",
    "latitude": 40.755,
    "longitude": 30.6502,
    "pm25_concentration": 20.59375,
    "year": 2016
  },
  {
    "country_name": "T\u00fcrkiye",
    "latitude": 40.755,
    "longitude": 30.6502,
    "pm25_concentration": 26.266666666666666,
    "year": 2017
  },
  {
    "country_name": "T\u00fcrkiye",
    "latitude": 40.755,
    "longitude": 30.6502,
    "pm25_concentration": 22.162790697674417,
    "year": 2018
  },
  {
    "country_name": "T\u00fcrkiye",
    "latitude": 40.755,
    "longitude": 30.6502,
    "pm25_concentration": 21.84722222222222,
    "year": 2019
  },
  {
    "country_name": "T\u00fcrkiye",
    "latitude": 40.755,
    "longitude": 30.6502,
    "pm25_concentration": 20.579545454545453,
    "year": 2020
  },
  {
    "country_name": "Uganda",
    "latitude": 0.300225,
    "longitude": 32.591553,
    "pm25_concentration": 104.0,
    "year": 2013
  },
  {
    "country_name": "Uganda",
    "latitude": 0.300225,
    "longitude": 32.591553,
    "pm25_concentration": 54.0,
    "year": 2017
  },
  {
    "country_name": "Uganda",
    "latitude": 0.300225,
    "longitude": 32.591553,
    "pm25_concentration": 59.0,
    "year": 2018
  },
  {
    "country_name": "Uganda",
    "latitude": 0.300225,
    "longitude": 32.591553,
    "pm25_concentration": 60.0,
    "year": 2019
  },
  {
    "country_name": "Ukraine",
    "latitude": 50.459256,
    "longitude": 30.633715,
    "pm25_concentration": 23.0,
    "year": 2018
  },
  {
    "country_name": "Ukraine",
    "latitude": 50.459256,
    "longitude": 30.633715,
    "pm25_concentration": 23.0,
    "year": 2019
  },
  {
    "country_name": "United Arab Emirates",
    "latitude": 25.4052,
    "longitude": 55.5136,
    "pm25_concentration": 33.0,
    "year": 2017
  },
  {
    "country_name": "United Arab Emirates",
    "latitude": 25.4052,
    "longitude": 55.5136,
    "pm25_concentration": 51.5,
    "year": 2018
  },
  {
    "country_name": "United Arab Emirates",
    "latitude": 25.4052,
    "longitude": 55.5136,
    "pm25_concentration": 45.5,
    "year": 2019
  },
  {
    "country_name": "United Arab Emirates",
    "latitude": 25.4052,
    "longitude": 55.5136,
    "pm25_concentration": 32.833333333333336,
    "year": 2021
  },
  {
    "country_name": "United Kingdom of Great Britain and Northern Ireland",
    "latitude": 50.7937,
    "longitude": 0.1813,
    "pm25_concentration": 12.456521739130435,
    "year": 2010
  },
  {
    "country_name": "United Kingdom of Great Britain and Northern Ireland",
    "latitude": 50.7937,
    "longitude": 0.1813,
    "pm25_concentration": 12.072289156626505,
    "year": 2013
  },
  {
    "country_name": "United Kingdom of Great Britain and Northern Ireland",
    "latitude": 50.7937,
    "longitude": 0.1813,
    "pm25_concentration": 11.358490566037736,
    "year": 2014
  },
  {
    "country_name": "United Kingdom of Great Britain and Northern Ireland",
    "latitude": 50.7937,
    "longitude": 0.1813,
    "pm25_concentration": 9.75,
    "year": 2015
  },
  {
    "country_name": "United Kingdom of Great Britain and Northern Ireland",
    "latitude": 50.7937,
    "longitude": 0.1813,
    "pm25_concentration": 9.849056603773585,
    "year": 2016
  },
  {
    "country_name": "United Kingdom of Great Britain and Northern Ireland",
    "latitude": 50.7937,
    "longitude": 0.1813,
    "pm25_concentration": 9.425925925925926,
    "year": 2017
  },